[
  {
    "Name": "大悲院",
    "Website": "https://you.ctrip.com/sight/qinhuangdao132/123777.html?scene=online",
    "Address": "河北省秦皇岛市山海关区古城东北片区",
    "Phone": null,
    "Latitude": null,
    "Longitude": null,
    "City": "QingHuangDao"
  },
  {
    "Name": "燕塞湖景区-凉亭",
    "Website": "https://you.ctrip.com/sight/qinhuangdao132/67629241.html?scene=online",
    "Address": "秦皇岛市山海关区城西北7华里燕塞湖景区内",
    "Phone": null,
    "Latitude": null,
    "Longitude": null,
    "City": "QingHuangDao"
  },
  {
    "Name": "燕塞湖鸟语林",
    "Website": "https://you.ctrip.com/sight/qinhuangdao132/5039.html?scene=online",
    "Address": "秦皇岛山海关城西北3.5公里处",
    "Phone": "0335-5158828",
    "Latitude": null,
    "Longitude": null,
    "City": "QingHuangDao"
  },
  {
    "Name": "五佛山国际生态旅游度假区",
    "Website": "https://you.ctrip.com/sight/qinhuangdao132/123747.html?scene=online",
    "Address": "河北省秦皇岛市山海关区附近长寿山景区内",
    "Phone": null,
    "Latitude": null,
    "Longitude": null,
    "City": "QingHuangDao"
  },
  {
    "Name": "山海关长城文化奇观园",
    "Website": "https://you.ctrip.com/sight/qinhuangdao132/134802.html?scene=online",
    "Address": "河北省秦皇岛市山海关区第一关镇老龙头景区",
    "Phone": "0335-5152996",
    "Latitude": null,
    "Longitude": null,
    "City": "QingHuangDao"
  },
  {
    "Name": "山海关总兵府",
    "Website": "https://you.ctrip.com/sight/qinhuangdao132/5067017.html?scene=online",
    "Address": "秦皇岛市山海关区内古城西大街16号",
    "Phone": null,
    "Latitude": null,
    "Longitude": null,
    "City": "QingHuangDao"
  },
  {
    "Name": "山海关长城文化奇观园-山海行宫",
    "Website": "https://you.ctrip.com/sight/qinhuangdao132/5596414.html?scene=online",
    "Address": "秦皇岛市山海关区龙海大道1号",
    "Phone": null,
    "Latitude": null,
    "Longitude": null,
    "City": "QingHuangDao"
  },
  {
    "Name": "秦宫",
    "Website": "https://you.ctrip.com/sight/qinhuangdao132/145267022.html?scene=online",
    "Address": "秦皇岛市山海关区城东约6公里的望夫石村后山岗上孟姜女庙景区内",
    "Phone": null,
    "Latitude": null,
    "Longitude": null,
    "City": "QingHuangDao"
  },
  {
    "Name": "角山景区",
    "Website": "https://you.ctrip.com/sight/qinhuangdao132/144104071.html?scene=online",
    "Address": "秦皇岛市山海关区角山路山海关城北约3公里",
    "Phone": null,
    "Latitude": null,
    "Longitude": null,
    "City": "QingHuangDao"
  },
  {
    "Name": "靖边楼",
    "Website": "https://you.ctrip.com/sight/qinhuangdao132/134085096.html?scene=online",
    "Address": "秦皇岛市山海关区南大街5-1号山海关古城内",
    "Phone": "0335-5051106",
    "Latitude": null,
    "Longitude": null,
    "City": "QingHuangDao"
  },
  {
    "Name": "乐岛海滩",
    "Website": "https://you.ctrip.com/sight/qinhuangdao132/145609019.html?scene=online",
    "Address": "秦皇岛市山海关区龙海大道南50米",
    "Phone": null,
    "Latitude": null,
    "Longitude": null,
    "City": "QingHuangDao"
  },
  {
    "Name": "中国长城艺术馆",
    "Website": "https://you.ctrip.com/sight/qinhuangdao132/145312976.html?scene=online",
    "Address": "秦皇岛市山海关区龙海大道1号山海行宫内",
    "Phone": null,
    "Latitude": null,
    "Longitude": null,
    "City": "QingHuangDao"
  },
  {
    "Name": "山海关老龙头景区-凉亭",
    "Website": "https://you.ctrip.com/sight/qinhuangdao132/4616217.html?scene=online",
    "Address": "秦皇岛市山海关区龙海大道1号老龙头景区内",
    "Phone": "0335-5152996",
    "Latitude": null,
    "Longitude": null,
    "City": "QingHuangDao"
  },
  {
    "Name": "山海关迎恩楼",
    "Website": "https://you.ctrip.com/sight/qinhuangdao132/1675640.html?scene=online",
    "Address": "秦皇岛市山海关区南大街5-1号山海关古城内",
    "Phone": "0335-5259000",
    "Latitude": null,
    "Longitude": null,
    "City": "QingHuangDao"
  },
  {
    "Name": "山海关望洋楼",
    "Website": "https://you.ctrip.com/sight/qinhuangdao132/5613354.html?scene=online",
    "Address": "河北省秦皇岛市山海关区山海关古城景区南门",
    "Phone": "0335-5259000,0335-5265061",
    "Latitude": null,
    "Longitude": null,
    "City": "QingHuangDao"
  },
  {
    "Name": "角山索道-上站",
    "Website": "https://you.ctrip.com/sight/qinhuangdao132/64671232.html?scene=online",
    "Address": "秦皇岛市山海关区五佛山国际生态旅游度假区角山景区内",
    "Phone": null,
    "Latitude": null,
    "Longitude": null,
    "City": "QingHuangDao"
  },
  {
    "Name": "山海关城楼",
    "Website": "https://you.ctrip.com/sight/qinhuangdao132/5140947.html?scene=online",
    "Address": "山海关区境内",
    "Phone": "0335-5258000,0335-5259000",
    "Latitude": null,
    "Longitude": null,
    "City": "QingHuangDao"
  },
  {
    "Name": "山海关老龙头景区-龙武营",
    "Website": "https://you.ctrip.com/sight/qinhuangdao132/134071195.html?scene=online",
    "Address": "秦皇岛市山海关区龙海大道1号老龙头景区内",
    "Phone": "0335-5152996",
    "Latitude": null,
    "Longitude": null,
    "City": "QingHuangDao"
  },
  {
    "Name": "乐岛水上乐园",
    "Website": "https://you.ctrip.com/sight/qinhuangdao132/145504621.html?scene=online",
    "Address": "河北省秦皇岛市山海关区石河镇G228(龙海大道)",
    "Phone": null,
    "Latitude": null,
    "Longitude": null,
    "City": "QingHuangDao"
  },
  {
    "Name": "海逸名都温泉",
    "Website": "https://you.ctrip.com/sight/qinhuangdao132/1715049.html?scene=online",
    "Address": "河北省秦皇岛市山海关区南窑河36-1号",
    "Phone": null,
    "Latitude": null,
    "Longitude": null,
    "City": "QingHuangDao"
  },
  {
    "Name": "白鹭岛",
    "Website": "https://you.ctrip.com/sight/qinhuangdao132/1675677.html?scene=online",
    "Address": "河北省秦皇岛市山海关区天福中路南130米",
    "Phone": null,
    "Latitude": null,
    "Longitude": null,
    "City": "QingHuangDao"
  },
  {
    "Name": "海神庙",
    "Website": "https://you.ctrip.com/sight/qinhuangdao132/1832016.html?scene=online",
    "Address": "秦皇岛市山海关区龙海大道1号老龙头景区内",
    "Phone": "0335-5152996,0335-5257058",
    "Latitude": null,
    "Longitude": null,
    "City": "QingHuangDao"
  },
  {
    "Name": "山海关长城博物馆",
    "Website": "https://you.ctrip.com/sight/qinhuangdao132/1675539.html?scene=online",
    "Address": "河北省秦皇岛市山海关区第一关路",
    "Phone": "0335-5051313",
    "Latitude": null,
    "Longitude": null,
    "City": "QingHuangDao"
  },
  {
    "Name": "山海关老龙头免费沙滩浴场",
    "Website": "https://you.ctrip.com/sight/qinhuangdao132/112648301.html?scene=online",
    "Address": "蓝天别墅附近",
    "Phone": null,
    "Latitude": null,
    "Longitude": null,
    "City": "QingHuangDao"
  },
  {
    "Name": "澄海楼",
    "Website": "https://you.ctrip.com/sight/qinhuangdao132/134799.html?scene=online",
    "Address": "秦皇岛市山海关区龙海大道1号老龙头景区内",
    "Phone": "0335-5152996",
    "Latitude": null,
    "Longitude": null,
    "City": "QingHuangDao"
  },
  {
    "Name": "山海关钟鼓楼",
    "Website": "https://you.ctrip.com/sight/qinhuangdao132/112649602.html?scene=online",
    "Address": "秦皇岛市山海关区西大街13号山海关风景区内",
    "Phone": "0335-5258000,0335-5259000",
    "Latitude": null,
    "Longitude": null,
    "City": "QingHuangDao"
  },
  {
    "Name": "长寿山",
    "Website": "https://you.ctrip.com/sight/qinhuangdao132/5038.html?scene=online",
    "Address": "秦皇岛市山海关区三道关村",
    "Phone": "0335-5259000,0335-5176633",
    "Latitude": null,
    "Longitude": null,
    "City": "QingHuangDao"
  },
  {
    "Name": "闯关东主题文化体验馆",
    "Website": "https://you.ctrip.com/sight/qinhuangdao132/5590353.html?scene=online",
    "Address": "河北省秦皇岛市山海关区东大街12号",
    "Phone": "0335-5265992",
    "Latitude": null,
    "Longitude": null,
    "City": "QingHuangDao"
  },
  {
    "Name": "老龙头码头游船",
    "Website": "https://you.ctrip.com/sight/qinhuangdao132/5713451.html?scene=online",
    "Address": "秦皇岛市山海关区龙海大道1号老龙头景区内",
    "Phone": "0335-5152225",
    "Latitude": null,
    "Longitude": null,
    "City": "QingHuangDao"
  },
  {
    "Name": "孟姜女庙",
    "Website": "https://you.ctrip.com/sight/qinhuangdao132/5037.html?scene=online",
    "Address": "河北省秦皇岛市山海关区望夫石村",
    "Phone": "0335-5051359",
    "Latitude": null,
    "Longitude": null,
    "City": "QingHuangDao"
  },
  {
    "Name": "山海关王家大院",
    "Website": "https://you.ctrip.com/sight/qinhuangdao132/123761.html?scene=online",
    "Address": "河北省秦皇岛市山海关区古城东三条29号",
    "Phone": "0335-5067700,0335-5067755",
    "Latitude": null,
    "Longitude": null,
    "City": "QingHuangDao"
  },
  {
    "Name": "求仙6号游船",
    "Website": "https://you.ctrip.com/sight/qinhuangdao132/144970046.html?scene=online",
    "Address": "秦皇岛市山海关区老龙头路1号",
    "Phone": "0335-5152225",
    "Latitude": null,
    "Longitude": null,
    "City": "QingHuangDao"
  },
  {
    "Name": "山海关古城景区",
    "Website": "https://you.ctrip.com/sight/qinhuangdao132/1833320.html?scene=online",
    "Address": "河北省秦皇岛市山海关南大街5-1",
    "Phone": "0335-5051106",
    "Latitude": null,
    "Longitude": null,
    "City": "QingHuangDao"
  },
  {
    "Name": "角山长城",
    "Website": "https://you.ctrip.com/sight/qinhuangdao132/5036.html?scene=online",
    "Address": "河北省秦皇岛市山海关区角山路",
    "Phone": "0335-8352639,0335-5152916",
    "Latitude": null,
    "Longitude": null,
    "City": "QingHuangDao"
  },
  {
    "Name": "乐岛海洋王国",
    "Website": "https://you.ctrip.com/sight/qinhuangdao132/66698.html?scene=online",
    "Address": "秦皇岛市山海关区龙海大道148号",
    "Phone": "0335-5158888",
    "Latitude": null,
    "Longitude": null,
    "City": "QingHuangDao"
  },
  {
    "Name": "天下第一关",
    "Website": "https://you.ctrip.com/sight/qinhuangdao132/123669.html?scene=online",
    "Address": "河北省秦皇岛市山海关区东大街1号",
    "Phone": "0335-5258000,0335-5259000,4006033566",
    "Latitude": null,
    "Longitude": null,
    "City": "QingHuangDao"
  },
  {
    "Name": "老龙头",
    "Website": "https://you.ctrip.com/sight/qinhuangdao132/5035.html?scene=online",
    "Address": "秦皇岛市山海关区老龙头路1号",
    "Phone": "0335-5152996",
    "Latitude": null,
    "Longitude": null,
    "City": "QingHuangDao"
  },
  {
    "Name": "山海关",
    "Website": "https://you.ctrip.com/sight/qinhuangdao132/5040.html?scene=online",
    "Address": "河北省秦皇岛市山海关区东大街1号",
    "Phone": "4006033566,0335-5051106",
    "Latitude": null,
    "Longitude": null,
    "City": "QingHuangDao"
  },
  {
    "Name": "山海关古城历史博物馆",
    "Website": "https://you.ctrip.com/sight/qinhuangdao132/145245212.html?scene=online",
    "Address": "河北省秦皇岛市山海关区西大街16号",
    "Phone": null,
    "Latitude": null,
    "Longitude": null,
    "City": "QingHuangDao"
  },
  {
    "Name": "镇远镖局",
    "Website": "https://you.ctrip.com/sight/qinhuangdao132/131897130.html?scene=online",
    "Address": "秦皇岛市山海关区西大街14号",
    "Phone": null,
    "Latitude": null,
    "Longitude": null,
    "City": "QingHuangDao"
  },
  {
    "Name": "山海关中国长城博物馆",
    "Website": "https://you.ctrip.com/sight/qinhuangdao132/148681454.html?scene=online",
    "Address": "河北省秦皇岛市山海关区G102北侧",
    "Phone": null,
    "Latitude": null,
    "Longitude": null,
    "City": "QingHuangDao"
  },
  {
    "Name": "孟姜女庙景区-凉亭",
    "Website": "https://you.ctrip.com/sight/qinhuangdao132/4626658.html?scene=online",
    "Address": "秦皇岛市山海关区城东约6公里的望夫石村后山岗上孟姜女庙景区内",
    "Phone": null,
    "Latitude": null,
    "Longitude": null,
    "City": "QingHuangDao"
  },
  {
    "Name": "瑞莲阁",
    "Website": "https://you.ctrip.com/sight/qinhuangdao132/134084723.html?scene=online",
    "Address": "河北省秦皇岛市山海关区东大街1号天下第一关景区内",
    "Phone": "0335-5258000",
    "Latitude": null,
    "Longitude": null,
    "City": "QingHuangDao"
  },
  {
    "Name": "入海石城",
    "Website": "https://you.ctrip.com/sight/qinhuangdao132/126180846.html?scene=online",
    "Address": "秦皇岛市山海关区龙海大道1号老龙头景区内",
    "Phone": null,
    "Latitude": null,
    "Longitude": null,
    "City": "QingHuangDao"
  },
  {
    "Name": "国家地质公园长寿山景区",
    "Website": "https://you.ctrip.com/sight/qinhuangdao132/144103789.html?scene=online",
    "Address": "秦皇岛市山海关区三道关村",
    "Phone": null,
    "Latitude": null,
    "Longitude": null,
    "City": "QingHuangDao"
  },
  {
    "Name": "山海关说书馆堂会",
    "Website": "https://you.ctrip.com/sight/qinhuangdao132/145705308.html?scene=online",
    "Address": "秦皇岛市山海关古城东大街3-10号\t",
    "Phone": "18630376319",
    "Latitude": null,
    "Longitude": null,
    "City": "QingHuangDao"
  },
  {
    "Name": "燕塞湖鸟语林景区",
    "Website": "https://you.ctrip.com/sight/qinhuangdao132/144431915.html?scene=online",
    "Address": "秦皇岛市山海关区小陈庄北",
    "Phone": null,
    "Latitude": null,
    "Longitude": null,
    "City": "QingHuangDao"
  },
  {
    "Name": "山海关老龙头景区-正堂",
    "Website": "https://you.ctrip.com/sight/qinhuangdao132/145346047.html?scene=online",
    "Address": "秦皇岛市山海关区龙海大道1号老龙头景区守备署内",
    "Phone": null,
    "Latitude": null,
    "Longitude": null,
    "City": "QingHuangDao"
  },
  {
    "Name": "猪猪亲子乐园",
    "Website": "https://you.ctrip.com/sight/qinhuangdao132/140046049.html?scene=online",
    "Address": "河北省秦皇岛市山海关区龙源大道20、22号",
    "Phone": "0335-3333033",
    "Latitude": null,
    "Longitude": null,
    "City": "QingHuangDao"
  },
  {
    "Name": "兵部分司",
    "Website": "https://you.ctrip.com/sight/qinhuangdao132/1675697.html?scene=online",
    "Address": "秦皇岛市山海关区东大街1号天下第一关景区内",
    "Phone": null,
    "Latitude": null,
    "Longitude": null,
    "City": "QingHuangDao"
  },
  {
    "Name": "王家大院山海关民俗博物馆(东三条)",
    "Website": "https://you.ctrip.com/sight/qinhuangdao132/1834237.html?scene=online",
    "Address": "东三条29-31号",
    "Phone": "0335-5067700,0335-5258000",
    "Latitude": null,
    "Longitude": null,
    "City": "QingHuangDao"
  },
  {
    "Name": "老龙头嗨King帐篷露营地",
    "Website": "https://you.ctrip.com/sight/qinhuangdao132/134785214.html?scene=online",
    "Address": "河北省秦皇岛市山海关区老龙头路老龙头景区西门",
    "Phone": null,
    "Latitude": null,
    "Longitude": null,
    "City": "QingHuangDao"
  },
  {
    "Name": "孟姜女哭倒长城处",
    "Website": "https://you.ctrip.com/sight/qinhuangdao132/145651500.html?scene=online",
    "Address": "秦皇岛市山海关区姜女庙路孟姜女庙景区内",
    "Phone": null,
    "Latitude": null,
    "Longitude": null,
    "City": "QingHuangDao"
  },
  {
    "Name": "山海关镇东楼",
    "Website": "https://you.ctrip.com/sight/qinhuangdao132/5131956.html?scene=online",
    "Address": "山海关区东北",
    "Phone": null,
    "Latitude": null,
    "Longitude": null,
    "City": "QingHuangDao"
  },
  {
    "Name": "莲花湖公园",
    "Website": "https://you.ctrip.com/sight/qinhuangdao132/123744.html?scene=online",
    "Address": "秦皇岛市山海关区东水关街23号(近火车站)",
    "Phone": null,
    "Latitude": null,
    "Longitude": null,
    "City": "QingHuangDao"
  },
  {
    "Name": "宁海城",
    "Website": "https://you.ctrip.com/sight/qinhuangdao132/1832755.html?scene=online",
    "Address": "秦皇岛市山海关区龙海大道1号老龙头景区内",
    "Phone": null,
    "Latitude": null,
    "Longitude": null,
    "City": "QingHuangDao"
  },
  {
    "Name": "海上摩托艇",
    "Website": "https://you.ctrip.com/sight/qinhuangdao132/145276878.html?scene=online",
    "Address": "秦皇岛市山海关区龙海大道148号乐岛公园搏海湾内",
    "Phone": null,
    "Latitude": null,
    "Longitude": null,
    "City": "QingHuangDao"
  },
  {
    "Name": "白鹭岛第二海滨浴场",
    "Website": "https://you.ctrip.com/sight/qinhuangdao132/145553725.html?scene=online",
    "Address": "河北省秦皇岛市山海关区龙海大道唐子寨对面",
    "Phone": null,
    "Latitude": null,
    "Longitude": null,
    "City": "QingHuangDao"
  },
  {
    "Name": "阳光浴场",
    "Website": "https://you.ctrip.com/sight/qinhuangdao132/145127830.html?scene=online",
    "Address": "秦皇岛市山海关区海口道假日蓝湾南侧约150米",
    "Phone": null,
    "Latitude": null,
    "Longitude": null,
    "City": "QingHuangDao"
  },
  {
    "Name": "山海关古城景区-王氏宗祠",
    "Website": "https://you.ctrip.com/sight/qinhuangdao132/4616269.html?scene=online",
    "Address": "秦皇岛市山海关区东三条29~31号王家大院内",
    "Phone": null,
    "Latitude": null,
    "Longitude": null,
    "City": "QingHuangDao"
  },
  {
    "Name": "牢房",
    "Website": "https://you.ctrip.com/sight/qinhuangdao132/145365818.html?scene=online",
    "Address": "秦皇岛市山海关区龙海大道1号老龙头景区内",
    "Phone": null,
    "Latitude": null,
    "Longitude": null,
    "City": "QingHuangDao"
  },
  {
    "Name": "儿童戏水池",
    "Website": "https://you.ctrip.com/sight/qinhuangdao132/4616280.html?scene=online",
    "Address": "秦皇岛市山海关区龙海大道148号乐岛公园戏水乐园内",
    "Phone": null,
    "Latitude": null,
    "Longitude": null,
    "City": "QingHuangDao"
  },
  {
    "Name": "山海关老龙头景区-巢车",
    "Website": "https://you.ctrip.com/sight/qinhuangdao132/83232688.html?scene=online",
    "Address": "秦皇岛市山海关区龙海大道1号老龙头景区龙武营内",
    "Phone": null,
    "Latitude": null,
    "Longitude": null,
    "City": "QingHuangDao"
  },
  {
    "Name": "六国饭店旧址",
    "Website": "https://you.ctrip.com/sight/qinhuangdao132/145533990.html?scene=online",
    "Address": "秦皇岛市山海关区南海道秦皇岛市山海关区铁路小学",
    "Phone": null,
    "Latitude": null,
    "Longitude": null,
    "City": "QingHuangDao"
  },
  {
    "Name": "栖贤寺",
    "Website": "https://you.ctrip.com/sight/qinhuangdao132/1675503.html?scene=online",
    "Address": "秦皇岛市山海关区五佛山国际生态旅游度假区角山景区内",
    "Phone": null,
    "Latitude": null,
    "Longitude": null,
    "City": "QingHuangDao"
  },
  {
    "Name": "兴儒博物馆",
    "Website": "https://you.ctrip.com/sight/qinhuangdao132/5544477.html?scene=online",
    "Address": "河北省秦皇岛市山海关区古城南大街32-4号",
    "Phone": "18833533222",
    "Latitude": null,
    "Longitude": null,
    "City": "QingHuangDao"
  },
  {
    "Name": "山海关老龙头景区-财神殿",
    "Website": "https://you.ctrip.com/sight/qinhuangdao132/4616237.html?scene=online",
    "Address": "秦皇岛市山海关区龙海大道1号老龙头景区海神庙内",
    "Phone": null,
    "Latitude": null,
    "Longitude": null,
    "City": "QingHuangDao"
  },
  {
    "Name": "西南交通大学山海关北洋铁路官学堂旧址",
    "Website": "https://you.ctrip.com/sight/qinhuangdao132/143726075.html?scene=online",
    "Address": "秦皇岛市山海关区站西街兴华小区(货场前街)西南侧约130米",
    "Phone": null,
    "Latitude": null,
    "Longitude": null,
    "City": "QingHuangDao"
  },
  {
    "Name": "山海关古城景区-长城剧场",
    "Website": "https://you.ctrip.com/sight/qinhuangdao132/145571986.html?scene=online",
    "Address": "河北省秦皇岛市山海关区关路24号",
    "Phone": null,
    "Latitude": null,
    "Longitude": null,
    "City": "QingHuangDao"
  },
  {
    "Name": "石河古渡",
    "Website": "https://you.ctrip.com/sight/qinhuangdao132/133820995.html?scene=online",
    "Address": "河北省秦皇岛市山海关区老龙头码头老龙头景区停车场进入",
    "Phone": "0335-5158101",
    "Latitude": null,
    "Longitude": null,
    "City": "QingHuangDao"
  },
  {
    "Name": "乐岛公园-沙滩卡丁车",
    "Website": "https://you.ctrip.com/sight/qinhuangdao132/145847090.html?scene=online",
    "Address": "秦皇岛市山海关区龙海大道148号乐岛公园内",
    "Phone": null,
    "Latitude": null,
    "Longitude": null,
    "City": "QingHuangDao"
  },
  {
    "Name": "世外桃源",
    "Website": "https://you.ctrip.com/sight/qinhuangdao132/1675419.html?scene=online",
    "Address": "秦皇岛市山海关区三道关村附近长寿山景区内",
    "Phone": null,
    "Latitude": null,
    "Longitude": null,
    "City": "QingHuangDao"
  },
  {
    "Name": "燕塞湖景区-游乐场",
    "Website": "https://you.ctrip.com/sight/qinhuangdao132/145455213.html?scene=online",
    "Address": "河北省秦皇岛市山海关区燕塞湖路燕塞湖景区",
    "Phone": null,
    "Latitude": null,
    "Longitude": null,
    "City": "QingHuangDao"
  },
  {
    "Name": "乐岛海洋王国-凉亭",
    "Website": "https://you.ctrip.com/sight/qinhuangdao132/64669874.html?scene=online",
    "Address": "秦皇岛市山海关区龙海大道148号乐岛公园内",
    "Phone": null,
    "Latitude": null,
    "Longitude": null,
    "City": "QingHuangDao"
  },
  {
    "Name": "田公馆",
    "Website": "https://you.ctrip.com/sight/qinhuangdao132/134078554.html?scene=online",
    "Address": "河北省秦皇岛市山海关区西大街26号",
    "Phone": null,
    "Latitude": null,
    "Longitude": null,
    "City": "QingHuangDao"
  },
  {
    "Name": "镇东楼",
    "Website": "https://you.ctrip.com/sight/qinhuangdao132/130887000.html?scene=online",
    "Address": "秦皇岛市山海关区城南5公里处天下第一关景区内",
    "Phone": "0335-5258000",
    "Latitude": null,
    "Longitude": null,
    "City": "QingHuangDao"
  },
  {
    "Name": "燕塞湖索道-上站",
    "Website": "https://you.ctrip.com/sight/qinhuangdao132/64669236.html?scene=online",
    "Address": "秦皇岛市山海关区城西北7华里燕塞湖景区内",
    "Phone": null,
    "Latitude": null,
    "Longitude": null,
    "City": "QingHuangDao"
  },
  {
    "Name": "闯关东",
    "Website": "https://you.ctrip.com/sight/qinhuangdao132/145273405.html?scene=online",
    "Address": "河北省秦皇岛市山海关区古城东大街12号",
    "Phone": null,
    "Latitude": null,
    "Longitude": null,
    "City": "QingHuangDao"
  },
  {
    "Name": "山海关老龙头景区-八国联军军营遗址",
    "Website": "https://you.ctrip.com/sight/qinhuangdao132/145641736.html?scene=online",
    "Address": "秦皇岛市山海关区老龙头景区",
    "Phone": null,
    "Latitude": null,
    "Longitude": null,
    "City": "QingHuangDao"
  },
  {
    "Name": "山海关大明帅府",
    "Website": "https://you.ctrip.com/sight/qinhuangdao132/145592772.html?scene=online",
    "Address": "秦皇岛市山海关区东罗城大街山海关古城景区",
    "Phone": null,
    "Latitude": null,
    "Longitude": null,
    "City": "QingHuangDao"
  },
  {
    "Name": "白鹭岛沙滩房车露营基地",
    "Website": "https://you.ctrip.com/sight/qinhuangdao132/145573290.html?scene=online",
    "Address": "秦皇岛市山海关区龙海大道秦皇岛观潮香居特色民宿西南侧约210米",
    "Phone": null,
    "Latitude": null,
    "Longitude": null,
    "City": "QingHuangDao"
  },
  {
    "Name": "山海关白鹭湾帆船俱乐部",
    "Website": "https://you.ctrip.com/sight/qinhuangdao132/140771820.html?scene=online",
    "Address": "河北省秦皇岛市山海关区龙海大道128号",
    "Phone": "18033508888",
    "Latitude": null,
    "Longitude": null,
    "City": "QingHuangDao"
  },
  {
    "Name": "山海关保卫战纪念厅",
    "Website": "https://you.ctrip.com/sight/qinhuangdao132/134080118.html?scene=online",
    "Address": "秦皇岛市山海关区穆家胡同2号",
    "Phone": null,
    "Latitude": null,
    "Longitude": null,
    "City": "QingHuangDao"
  },
  {
    "Name": "山海镇督师府",
    "Website": "https://you.ctrip.com/sight/qinhuangdao132/5711738.html?scene=online",
    "Address": "河北省秦皇岛市山海关区西大街16号",
    "Phone": "18931353226",
    "Latitude": null,
    "Longitude": null,
    "City": "QingHuangDao"
  },
  {
    "Name": "蟹岛温泉乐园",
    "Website": "https://you.ctrip.com/sight/qinhuangdao132/140768366.html?scene=online",
    "Address": "河北省秦皇岛市山海关区田庄村山海关机场正门南800米",
    "Phone": null,
    "Latitude": null,
    "Longitude": null,
    "City": "QingHuangDao"
  },
  {
    "Name": "甲申史鉴馆",
    "Website": "https://you.ctrip.com/sight/qinhuangdao132/5168470.html?scene=online",
    "Address": "秦皇岛市山海关区西大街66号",
    "Phone": "0335-5136179",
    "Latitude": null,
    "Longitude": null,
    "City": "QingHuangDao"
  },
  {
    "Name": "关帝殿",
    "Website": "https://you.ctrip.com/sight/qinhuangdao132/4616346.html?scene=online",
    "Address": "秦皇岛市山海关区五佛山国际生态旅游度假区角山景区内",
    "Phone": null,
    "Latitude": null,
    "Longitude": null,
    "City": "QingHuangDao"
  },
  {
    "Name": "浪山海野奢营地",
    "Website": "https://you.ctrip.com/sight/qinhuangdao132/148463242.html?scene=online",
    "Address": "秦皇岛市山海关区乐岛海洋公园南",
    "Phone": null,
    "Latitude": null,
    "Longitude": null,
    "City": "QingHuangDao"
  },
  {
    "Name": "神医华佗石窟",
    "Website": "https://you.ctrip.com/sight/qinhuangdao132/1675452.html?scene=online",
    "Address": "秦皇岛市山海关区三道关村附近长寿山景区内",
    "Phone": null,
    "Latitude": null,
    "Longitude": null,
    "City": "QingHuangDao"
  },
  {
    "Name": "威远公园",
    "Website": "https://you.ctrip.com/sight/qinhuangdao132/4616219.html?scene=online",
    "Address": "秦皇岛市山海关区关城西路与双棉山路交叉路口东侧",
    "Phone": null,
    "Latitude": null,
    "Longitude": null,
    "City": "QingHuangDao"
  },
  {
    "Name": "国家地质公园长寿山景区-凉亭",
    "Website": "https://you.ctrip.com/sight/qinhuangdao132/4626705.html?scene=online",
    "Address": "秦皇岛市山海关区三道关村附近长寿山景区内",
    "Phone": null,
    "Latitude": null,
    "Longitude": null,
    "City": "QingHuangDao"
  },
  {
    "Name": "芦沟桥西城门",
    "Website": "https://you.ctrip.com/sight/qinhuangdao132/145395276.html?scene=online",
    "Address": "河北省秦皇岛市山海关区G1(京哈高速)",
    "Phone": null,
    "Latitude": null,
    "Longitude": null,
    "City": "QingHuangDao"
  },
  {
    "Name": "清真寺",
    "Website": "https://you.ctrip.com/sight/qinhuangdao132/64673599.html?scene=online",
    "Address": "河北省秦皇岛市山海关区关城西路34号",
    "Phone": "18833833911",
    "Latitude": null,
    "Longitude": null,
    "City": "QingHuangDao"
  },
  {
    "Name": "听竹轩",
    "Website": "https://you.ctrip.com/sight/qinhuangdao132/145391847.html?scene=online",
    "Address": "河北省秦皇岛市山海关区齐家楼胡同6号",
    "Phone": null,
    "Latitude": null,
    "Longitude": null,
    "City": "QingHuangDao"
  },
  {
    "Name": "守备署",
    "Website": "https://you.ctrip.com/sight/qinhuangdao132/143349938.html?scene=online",
    "Address": "秦皇岛市山海关区龙海大道1号老龙头景区内",
    "Phone": "0335-5152996",
    "Latitude": null,
    "Longitude": null,
    "City": "QingHuangDao"
  },
  {
    "Name": "山海关妈祖庙",
    "Website": "https://you.ctrip.com/sight/qinhuangdao132/143737261.html?scene=online",
    "Address": "秦皇岛市山海关区龙海大道",
    "Phone": null,
    "Latitude": null,
    "Longitude": null,
    "City": "QingHuangDao"
  },
  {
    "Name": "一线天",
    "Website": "https://you.ctrip.com/sight/qinhuangdao132/145197607.html?scene=online",
    "Address": "秦皇岛市山海关区三道关村附近长寿山景区内",
    "Phone": null,
    "Latitude": null,
    "Longitude": null,
    "City": "QingHuangDao"
  },
  {
    "Name": "天下第一关景区-箭楼",
    "Website": "https://you.ctrip.com/sight/qinhuangdao132/145326324.html?scene=online",
    "Address": "河北省秦皇岛市山海关区东大街1号山海关-天下第一关景区内",
    "Phone": null,
    "Latitude": null,
    "Longitude": null,
    "City": "QingHuangDao"
  },
  {
    "Name": "山海关老龙头景区-遗址洞",
    "Website": "https://you.ctrip.com/sight/qinhuangdao132/145671069.html?scene=online",
    "Address": "秦皇岛市山海关区龙海大道1号老龙头景区内",
    "Phone": null,
    "Latitude": null,
    "Longitude": null,
    "City": "QingHuangDao"
  },
  {
    "Name": "孔庙",
    "Website": "https://you.ctrip.com/sight/qinhuangdao132/4616222.html?scene=online",
    "Address": "秦皇岛市山海关区古城西大街山海关总兵府景区内",
    "Phone": null,
    "Latitude": null,
    "Longitude": null,
    "City": "QingHuangDao"
  },
  {
    "Name": "石河樱桃采摘园",
    "Website": "https://you.ctrip.com/sight/qinhuangdao132/145306665.html?scene=online",
    "Address": "河北省秦皇岛市山海关区燕塞大道36号",
    "Phone": null,
    "Latitude": null,
    "Longitude": null,
    "City": "QingHuangDao"
  },
  {
    "Name": "皮划艇漂流",
    "Website": "https://you.ctrip.com/sight/qinhuangdao132/145543880.html?scene=online",
    "Address": "秦皇岛市山海关区龙海大道148号乐岛公园戏水乐园内",
    "Phone": null,
    "Latitude": null,
    "Longitude": null,
    "City": "QingHuangDao"
  },
  {
    "Name": "卧龙山庄",
    "Website": "https://you.ctrip.com/sight/qinhuangdao132/145514516.html?scene=online",
    "Address": "河北省秦皇岛市山海关区京秦高速入口与京秦高速交叉口西南约180米",
    "Phone": null,
    "Latitude": null,
    "Longitude": null,
    "City": "QingHuangDao"
  },
  {
    "Name": "老龙头码头",
    "Website": "https://you.ctrip.com/sight/qinhuangdao132/148623286.html?scene=online",
    "Address": "秦皇岛市山海关区龙海大道1号老龙头景区内",
    "Phone": null,
    "Latitude": null,
    "Longitude": null,
    "City": "QingHuangDao"
  },
  {
    "Name": "极地馆",
    "Website": "https://you.ctrip.com/sight/qinhuangdao132/145579510.html?scene=online",
    "Address": "秦皇岛市山海关区龙海大道148号乐岛公园海底总动员内",
    "Phone": null,
    "Latitude": null,
    "Longitude": null,
    "City": "QingHuangDao"
  },
  {
    "Name": "山海关古城电瓶车专线古城西门站(迎恩楼)",
    "Website": "https://you.ctrip.com/sight/qinhuangdao132/145255640.html?scene=online",
    "Address": "秦皇岛市山海关区东大街1号山海关古城景区内",
    "Phone": null,
    "Latitude": null,
    "Longitude": null,
    "City": "QingHuangDao"
  },
  {
    "Name": "悬阳洞",
    "Website": "https://you.ctrip.com/sight/qinhuangdao132/5186.html?scene=online",
    "Address": "秦皇岛市山海关区三道关村附近长寿山景区内",
    "Phone": null,
    "Latitude": null,
    "Longitude": null,
    "City": "QingHuangDao"
  },
  {
    "Name": "牧营楼",
    "Website": "https://you.ctrip.com/sight/qinhuangdao132/134085494.html?scene=online",
    "Address": "秦皇岛市山海关区南大街5-1号山海关古城内",
    "Phone": "0335-5258000",
    "Latitude": null,
    "Longitude": null,
    "City": "QingHuangDao"
  },
  {
    "Name": "日军飞机场(沙河子飞机场)",
    "Website": "https://you.ctrip.com/sight/qinhuangdao132/145425647.html?scene=online",
    "Address": "秦皇岛市山海关区城南5公里处天下第一关景区内",
    "Phone": null,
    "Latitude": null,
    "Longitude": null,
    "City": "QingHuangDao"
  },
  {
    "Name": "四野临时指挥部",
    "Website": "https://you.ctrip.com/sight/qinhuangdao132/5067339.html?scene=online",
    "Address": "秦皇岛市山海关区穆家胡同2号",
    "Phone": null,
    "Latitude": null,
    "Longitude": null,
    "City": "QingHuangDao"
  },
  {
    "Name": "礁石瀑布",
    "Website": "https://you.ctrip.com/sight/qinhuangdao132/145207542.html?scene=online",
    "Address": "秦皇岛市山海关区龙海大道148号乐岛公园戏水乐园内",
    "Phone": null,
    "Latitude": null,
    "Longitude": null,
    "City": "QingHuangDao"
  },
  {
    "Name": "山海关出海打渔俱乐部",
    "Website": "https://you.ctrip.com/sight/qinhuangdao132/145342572.html?scene=online",
    "Address": "河北省秦皇岛市海港区文化路152号",
    "Phone": null,
    "Latitude": null,
    "Longitude": null,
    "City": "QingHuangDao"
  },
  {
    "Name": "古城特色纪念品",
    "Website": "https://you.ctrip.com/sight/qinhuangdao132/145561415.html?scene=online",
    "Address": "秦皇岛市山海关区东大街1-1",
    "Phone": null,
    "Latitude": null,
    "Longitude": null,
    "City": "QingHuangDao"
  },
  {
    "Name": "望夫石",
    "Website": "https://you.ctrip.com/sight/qinhuangdao132/144103598.html?scene=online",
    "Address": "河北省秦皇岛市山海关区姜女庙路1号孟姜女庙",
    "Phone": null,
    "Latitude": null,
    "Longitude": null,
    "City": "QingHuangDao"
  },
  {
    "Name": "蓝蜻蜓游艇会",
    "Website": "https://you.ctrip.com/sight/qinhuangdao132/4616239.html?scene=online",
    "Address": "秦皇岛市山海关区石河路山海新城小区西南侧约220米",
    "Phone": null,
    "Latitude": null,
    "Longitude": null,
    "City": "QingHuangDao"
  },
  {
    "Name": "詹荣府",
    "Website": "https://you.ctrip.com/sight/qinhuangdao132/112652277.html?scene=online",
    "Address": "秦皇岛市山海关区西大街55号",
    "Phone": null,
    "Latitude": null,
    "Longitude": null,
    "City": "QingHuangDao"
  },
  {
    "Name": "尚书坊",
    "Website": "https://you.ctrip.com/sight/qinhuangdao132/143731411.html?scene=online",
    "Address": "秦皇岛市山海关区西大街秦皇岛山海假日酒店东南门东侧约70米",
    "Phone": null,
    "Latitude": null,
    "Longitude": null,
    "City": "QingHuangDao"
  },
  {
    "Name": "大慈院",
    "Website": "https://you.ctrip.com/sight/qinhuangdao132/144103926.html?scene=online",
    "Address": "河北省秦皇岛市山海关区西大街55号",
    "Phone": null,
    "Latitude": null,
    "Longitude": null,
    "City": "QingHuangDao"
  },
  {
    "Name": "假山",
    "Website": "https://you.ctrip.com/sight/qinhuangdao132/145123851.html?scene=online",
    "Address": "秦皇岛市山海关区燕塞湖路松鼠园内",
    "Phone": null,
    "Latitude": null,
    "Longitude": null,
    "City": "QingHuangDao"
  },
  {
    "Name": "山海关区文化馆",
    "Website": "https://you.ctrip.com/sight/qinhuangdao132/145137862.html?scene=online",
    "Address": "河北省秦皇岛市山海关区工人街南街水郡御景1号楼三层",
    "Phone": null,
    "Latitude": null,
    "Longitude": null,
    "City": "QingHuangDao"
  },
  {
    "Name": "士兵房",
    "Website": "https://you.ctrip.com/sight/qinhuangdao132/145157820.html?scene=online",
    "Address": "秦皇岛市山海关区龙海大道1号老龙头景区龙武营内",
    "Phone": null,
    "Latitude": null,
    "Longitude": null,
    "City": "QingHuangDao"
  },
  {
    "Name": "镇远镖局-账房",
    "Website": "https://you.ctrip.com/sight/qinhuangdao132/145167796.html?scene=online",
    "Address": "秦皇岛市山海关区吉城西大街14号镇远镖局内",
    "Phone": null,
    "Latitude": null,
    "Longitude": null,
    "City": "QingHuangDao"
  },
  {
    "Name": "鸟语林-中心柱",
    "Website": "https://you.ctrip.com/sight/qinhuangdao132/145187787.html?scene=online",
    "Address": "秦皇岛市山海关区城西北7华里燕塞湖景区鸟语林内",
    "Phone": null,
    "Latitude": null,
    "Longitude": null,
    "City": "QingHuangDao"
  },
  {
    "Name": "农具馆",
    "Website": "https://you.ctrip.com/sight/qinhuangdao132/145213971.html?scene=online",
    "Address": "秦皇岛市山海关区东三条29~31号王家大院内",
    "Phone": null,
    "Latitude": null,
    "Longitude": null,
    "City": "QingHuangDao"
  },
  {
    "Name": "揽古堂",
    "Website": "https://you.ctrip.com/sight/qinhuangdao132/145237341.html?scene=online",
    "Address": "秦皇岛市山海关区西大街山海关古城历史博物馆",
    "Phone": null,
    "Latitude": null,
    "Longitude": null,
    "City": "QingHuangDao"
  },
  {
    "Name": "公生明",
    "Website": "https://you.ctrip.com/sight/qinhuangdao132/145255841.html?scene=online",
    "Address": "秦皇岛市山海关区古城西大街山海关总兵府景区山海镇总兵府内",
    "Phone": null,
    "Latitude": null,
    "Longitude": null,
    "City": "QingHuangDao"
  },
  {
    "Name": "山海关老龙头景区-把总署",
    "Website": "https://you.ctrip.com/sight/qinhuangdao132/145273383.html?scene=online",
    "Address": "秦皇岛市山海关区龙海大道1号老龙头景区内",
    "Phone": null,
    "Latitude": null,
    "Longitude": null,
    "City": "QingHuangDao"
  },
  {
    "Name": "晓月亭",
    "Website": "https://you.ctrip.com/sight/qinhuangdao132/145295153.html?scene=online",
    "Address": "秦皇岛市山海关区东大街1号天下第一关景区内",
    "Phone": null,
    "Latitude": null,
    "Longitude": null,
    "City": "QingHuangDao"
  },
  {
    "Name": "横空石壁",
    "Website": "https://you.ctrip.com/sight/qinhuangdao132/145316394.html?scene=online",
    "Address": "秦皇岛市山海关区城西北7华里燕塞湖景区内",
    "Phone": null,
    "Latitude": null,
    "Longitude": null,
    "City": "QingHuangDao"
  },
  {
    "Name": "妙手投篮",
    "Website": "https://you.ctrip.com/sight/qinhuangdao132/145363702.html?scene=online",
    "Address": "秦皇岛市山海关区龙海大道148号乐岛公园海洋嘉年华内",
    "Phone": null,
    "Latitude": null,
    "Longitude": null,
    "City": "QingHuangDao"
  },
  {
    "Name": "中华巧女姜艳华剪纸艺术馆",
    "Website": "https://you.ctrip.com/sight/qinhuangdao132/145385476.html?scene=online",
    "Address": "秦皇岛市山海关区龙海大道1号老龙头景区内",
    "Phone": null,
    "Latitude": null,
    "Longitude": null,
    "City": "QingHuangDao"
  },
  {
    "Name": "自控飞碟",
    "Website": "https://you.ctrip.com/sight/qinhuangdao132/145385472.html?scene=online",
    "Address": "秦皇岛市山海关区龙海大道148号乐岛公园海洋嘉年华内",
    "Phone": null,
    "Latitude": null,
    "Longitude": null,
    "City": "QingHuangDao"
  },
  {
    "Name": "大慈院-牌楼",
    "Website": "https://you.ctrip.com/sight/qinhuangdao132/145383447.html?scene=online",
    "Address": "秦皇岛市山海关区古城东北片区大悲院内",
    "Phone": null,
    "Latitude": null,
    "Longitude": null,
    "City": "QingHuangDao"
  },
  {
    "Name": "潮河公园",
    "Website": "https://you.ctrip.com/sight/qinhuangdao132/145375691.html?scene=online",
    "Address": "秦皇岛市山海关区长城西街名丰山海文园-南区西北侧",
    "Phone": null,
    "Latitude": null,
    "Longitude": null,
    "City": "QingHuangDao"
  },
  {
    "Name": "愿望池",
    "Website": "https://you.ctrip.com/sight/qinhuangdao132/145375682.html?scene=online",
    "Address": "秦皇岛市山海关区龙海大道148号乐岛公园海底总动员内",
    "Phone": null,
    "Latitude": null,
    "Longitude": null,
    "City": "QingHuangDao"
  },
  {
    "Name": "三星飞旋",
    "Website": "https://you.ctrip.com/sight/qinhuangdao132/145373622.html?scene=online",
    "Address": "秦皇岛市山海关区龙海大道148号乐岛公园海洋嘉年华内",
    "Phone": null,
    "Latitude": null,
    "Longitude": null,
    "City": "QingHuangDao"
  },
  {
    "Name": "城隍庙",
    "Website": "https://you.ctrip.com/sight/qinhuangdao132/145372226.html?scene=online",
    "Address": "秦皇岛市山海关区古城西大街山海关总兵府景区十二生肖太岁神院内",
    "Phone": null,
    "Latitude": null,
    "Longitude": null,
    "City": "QingHuangDao"
  },
  {
    "Name": "浪摆滑道",
    "Website": "https://you.ctrip.com/sight/qinhuangdao132/145372205.html?scene=online",
    "Address": "秦皇岛市山海关区龙海大道148号乐岛公园戏水乐园内",
    "Phone": null,
    "Latitude": null,
    "Longitude": null,
    "City": "QingHuangDao"
  },
  {
    "Name": "秦皇岛烈士陵园",
    "Website": "https://you.ctrip.com/sight/qinhuangdao132/145365836.html?scene=online",
    "Address": "河北省秦皇岛市山海关区孟姜镇吕家沟村北欢喜岭",
    "Phone": null,
    "Latitude": null,
    "Longitude": null,
    "City": "QingHuangDao"
  },
  {
    "Name": "玛雅舞台",
    "Website": "https://you.ctrip.com/sight/qinhuangdao132/145365829.html?scene=online",
    "Address": "秦皇岛市山海关区龙海大道148号乐岛公园海洋嘉年华内",
    "Phone": null,
    "Latitude": null,
    "Longitude": null,
    "City": "QingHuangDao"
  },
  {
    "Name": "六角亭",
    "Website": "https://you.ctrip.com/sight/qinhuangdao132/145362256.html?scene=online",
    "Address": "秦皇岛市山海关区五佛山国际生态旅游度假区角山景区内",
    "Phone": null,
    "Latitude": null,
    "Longitude": null,
    "City": "QingHuangDao"
  },
  {
    "Name": "金棕榈电影院(山海关店)",
    "Website": "https://you.ctrip.com/sight/qinhuangdao132/145362251.html?scene=online",
    "Address": "关城南路93号",
    "Phone": null,
    "Latitude": null,
    "Longitude": null,
    "City": "QingHuangDao"
  },
  {
    "Name": "碰碰车",
    "Website": "https://you.ctrip.com/sight/qinhuangdao132/145362247.html?scene=online",
    "Address": "秦皇岛市山海关区龙海大道148号乐岛公园海洋嘉年华内",
    "Phone": null,
    "Latitude": null,
    "Longitude": null,
    "City": "QingHuangDao"
  },
  {
    "Name": "棕熊拜山",
    "Website": "https://you.ctrip.com/sight/qinhuangdao132/145355995.html?scene=online",
    "Address": "秦皇岛市山海关区城西北7华里燕塞湖景区内",
    "Phone": null,
    "Latitude": null,
    "Longitude": null,
    "City": "QingHuangDao"
  },
  {
    "Name": "义海锦丝丝绸展览馆",
    "Website": "https://you.ctrip.com/sight/qinhuangdao132/145355992.html?scene=online",
    "Address": "河北省秦皇岛市山海关区龙海大道99号",
    "Phone": null,
    "Latitude": null,
    "Longitude": null,
    "City": "QingHuangDao"
  },
  {
    "Name": "勇敢者转盘",
    "Website": "https://you.ctrip.com/sight/qinhuangdao132/145355938.html?scene=online",
    "Address": "秦皇岛市山海关区龙海大道148号乐岛公园海洋嘉年华内",
    "Phone": null,
    "Latitude": null,
    "Longitude": null,
    "City": "QingHuangDao"
  },
  {
    "Name": "莲台",
    "Website": "https://you.ctrip.com/sight/qinhuangdao132/145355925.html?scene=online",
    "Address": "秦皇岛市山海关区五佛山国际生态旅游度假区角山景区内",
    "Phone": null,
    "Latitude": null,
    "Longitude": null,
    "City": "QingHuangDao"
  },
  {
    "Name": "海盗城堡",
    "Website": "https://you.ctrip.com/sight/qinhuangdao132/145346055.html?scene=online",
    "Address": "秦皇岛市山海关区龙海大道148号乐岛公园戏水乐园内",
    "Phone": null,
    "Latitude": null,
    "Longitude": null,
    "City": "QingHuangDao"
  },
  {
    "Name": "第29届奥林匹克运动会火炬接力秦皇岛站起点",
    "Website": "https://you.ctrip.com/sight/qinhuangdao132/145336156.html?scene=online",
    "Address": "秦皇岛市山海关区龙海大道1号老龙头景区内",
    "Phone": null,
    "Latitude": null,
    "Longitude": null,
    "City": "QingHuangDao"
  },
  {
    "Name": "家庭乘筏滑道",
    "Website": "https://you.ctrip.com/sight/qinhuangdao132/145316393.html?scene=online",
    "Address": "秦皇岛市山海关区龙海大道148号乐岛公园戏水乐园内",
    "Phone": null,
    "Latitude": null,
    "Longitude": null,
    "City": "QingHuangDao"
  },
  {
    "Name": "山海关老龙头景区-议事厅",
    "Website": "https://you.ctrip.com/sight/qinhuangdao132/145314402.html?scene=online",
    "Address": "秦皇岛市山海关区龙海大道1号老龙头景区守备署内",
    "Phone": null,
    "Latitude": null,
    "Longitude": null,
    "City": "QingHuangDao"
  },
  {
    "Name": "文华阁",
    "Website": "https://you.ctrip.com/sight/qinhuangdao132/145306565.html?scene=online",
    "Address": "秦皇岛市山海关区龙海大道1号山海行宫内",
    "Phone": null,
    "Latitude": null,
    "Longitude": null,
    "City": "QingHuangDao"
  },
  {
    "Name": "大慈院-放生池",
    "Website": "https://you.ctrip.com/sight/qinhuangdao132/145306561.html?scene=online",
    "Address": "秦皇岛市山海关区古城东北片区大悲院内",
    "Phone": null,
    "Latitude": null,
    "Longitude": null,
    "City": "QingHuangDao"
  },
  {
    "Name": "神女浴日",
    "Website": "https://you.ctrip.com/sight/qinhuangdao132/145296785.html?scene=online",
    "Address": "秦皇岛市山海关区小陈庄北燕塞湖景区内",
    "Phone": null,
    "Latitude": null,
    "Longitude": null,
    "City": "QingHuangDao"
  },
  {
    "Name": "抛圈套瓶",
    "Website": "https://you.ctrip.com/sight/qinhuangdao132/145296697.html?scene=online",
    "Address": "秦皇岛市山海关区龙海大道148号乐岛公园海洋嘉年华内",
    "Phone": null,
    "Latitude": null,
    "Longitude": null,
    "City": "QingHuangDao"
  },
  {
    "Name": "安澜牌坊",
    "Website": "https://you.ctrip.com/sight/qinhuangdao132/145296694.html?scene=online",
    "Address": "秦皇岛市山海关区龙海大道1号老龙头景区海神庙内",
    "Phone": null,
    "Latitude": null,
    "Longitude": null,
    "City": "QingHuangDao"
  },
  {
    "Name": "北元玄真堂",
    "Website": "https://you.ctrip.com/sight/qinhuangdao132/145296689.html?scene=online",
    "Address": "秦皇岛市山海关区南大街山海关古城景区",
    "Phone": null,
    "Latitude": null,
    "Longitude": null,
    "City": "QingHuangDao"
  },
  {
    "Name": "真神殿",
    "Website": "https://you.ctrip.com/sight/qinhuangdao132/145294586.html?scene=online",
    "Address": "秦皇岛市山海关区古城西大街山海关总兵府景区十二生肖太岁神院内",
    "Phone": null,
    "Latitude": null,
    "Longitude": null,
    "City": "QingHuangDao"
  },
  {
    "Name": "后九连",
    "Website": "https://you.ctrip.com/sight/qinhuangdao132/145293143.html?scene=online",
    "Address": "秦皇岛市山海关区角山路角山长城内",
    "Phone": null,
    "Latitude": null,
    "Longitude": null,
    "City": "QingHuangDao"
  },
  {
    "Name": "王家大院-少爷房",
    "Website": "https://you.ctrip.com/sight/qinhuangdao132/145293127.html?scene=online",
    "Address": "秦皇岛市山海关区东三条29~31号王家大院内",
    "Phone": null,
    "Latitude": null,
    "Longitude": null,
    "City": "QingHuangDao"
  },
  {
    "Name": "鼓亭",
    "Website": "https://you.ctrip.com/sight/qinhuangdao132/145286773.html?scene=online",
    "Address": "秦皇岛市山海关区西大街13号钟鼓楼内",
    "Phone": null,
    "Latitude": null,
    "Longitude": null,
    "City": "QingHuangDao"
  },
  {
    "Name": "角山地质地貌景观区",
    "Website": "https://you.ctrip.com/sight/qinhuangdao132/145286765.html?scene=online",
    "Address": "秦皇岛市山海关区五佛山国际生态旅游度假区角山景区内",
    "Phone": null,
    "Latitude": null,
    "Longitude": null,
    "City": "QingHuangDao"
  },
  {
    "Name": "戚继光兵阵陈列室",
    "Website": "https://you.ctrip.com/sight/qinhuangdao132/145286758.html?scene=online",
    "Address": "秦皇岛市山海关区龙海大道1号老龙头景区龙武营内",
    "Phone": null,
    "Latitude": null,
    "Longitude": null,
    "City": "QingHuangDao"
  },
  {
    "Name": "长城平台",
    "Website": "https://you.ctrip.com/sight/qinhuangdao132/145276872.html?scene=online",
    "Address": "秦皇岛市山海关区角山路角山长城内",
    "Phone": null,
    "Latitude": null,
    "Longitude": null,
    "City": "QingHuangDao"
  },
  {
    "Name": "拘禁所",
    "Website": "https://you.ctrip.com/sight/qinhuangdao132/145276871.html?scene=online",
    "Address": "秦皇岛市山海关区古城西大街山海关总兵府景区山海镇总兵府内",
    "Phone": null,
    "Latitude": null,
    "Longitude": null,
    "City": "QingHuangDao"
  },
  {
    "Name": "鼓楼",
    "Website": "https://you.ctrip.com/sight/qinhuangdao132/145274820.html?scene=online",
    "Address": "秦皇岛市山海关区龙海大道1号老龙头景区海神庙内",
    "Phone": null,
    "Latitude": null,
    "Longitude": null,
    "City": "QingHuangDao"
  },
  {
    "Name": "后寺湖山",
    "Website": "https://you.ctrip.com/sight/qinhuangdao132/145268277.html?scene=online",
    "Address": "秦皇岛市山海关区",
    "Phone": null,
    "Latitude": null,
    "Longitude": null,
    "City": "QingHuangDao"
  },
  {
    "Name": "清风亭",
    "Website": "https://you.ctrip.com/sight/qinhuangdao132/145267115.html?scene=online",
    "Address": "秦皇岛市山海关区城西北7华里燕塞湖景区内",
    "Phone": null,
    "Latitude": null,
    "Longitude": null,
    "City": "QingHuangDao"
  },
  {
    "Name": "豪华转马",
    "Website": "https://you.ctrip.com/sight/qinhuangdao132/145267098.html?scene=online",
    "Address": "秦皇岛市山海关区燕塞湖路燕塞湖景区游乐场内",
    "Phone": null,
    "Latitude": null,
    "Longitude": null,
    "City": "QingHuangDao"
  },
  {
    "Name": "文殊殿",
    "Website": "https://you.ctrip.com/sight/qinhuangdao132/145267064.html?scene=online",
    "Address": "秦皇岛市山海关区古城东北片区大悲院内",
    "Phone": null,
    "Latitude": null,
    "Longitude": null,
    "City": "QingHuangDao"
  },
  {
    "Name": "百总房",
    "Website": "https://you.ctrip.com/sight/qinhuangdao132/145267029.html?scene=online",
    "Address": "秦皇岛市山海关区龙海大道1号老龙头景区龙武营内",
    "Phone": null,
    "Latitude": null,
    "Longitude": null,
    "City": "QingHuangDao"
  },
  {
    "Name": "伽蓝殿",
    "Website": "https://you.ctrip.com/sight/qinhuangdao132/145267020.html?scene=online",
    "Address": "秦皇岛市山海关区五佛山国际生态旅游度假区角山景区栖贤寺内",
    "Phone": null,
    "Latitude": null,
    "Longitude": null,
    "City": "QingHuangDao"
  },
  {
    "Name": "海狮湾",
    "Website": "https://you.ctrip.com/sight/qinhuangdao132/145267012.html?scene=online",
    "Address": "秦皇岛市山海关区龙海大道148号乐岛公园海底总动员内",
    "Phone": null,
    "Latitude": null,
    "Longitude": null,
    "City": "QingHuangDao"
  },
  {
    "Name": "卯兔戌狗太岁殿",
    "Website": "https://you.ctrip.com/sight/qinhuangdao132/145257142.html?scene=online",
    "Address": "秦皇岛市山海关区古城西大街山海关总兵府景区十二生肖太岁神院内",
    "Phone": null,
    "Latitude": null,
    "Longitude": null,
    "City": "QingHuangDao"
  },
  {
    "Name": "瞭望地",
    "Website": "https://you.ctrip.com/sight/qinhuangdao132/145255065.html?scene=online",
    "Address": "秦皇岛市山海关区城南5公里处天下第一关景区内",
    "Phone": null,
    "Latitude": null,
    "Longitude": null,
    "City": "QingHuangDao"
  },
  {
    "Name": "山海关离休活动室(中国铁路沈阳局集团有限公司)",
    "Website": "https://you.ctrip.com/sight/qinhuangdao132/145253635.html?scene=online",
    "Address": "秦皇岛市山海关区南海道秦皇岛市山海关区铁路小学西侧约40米",
    "Phone": null,
    "Latitude": null,
    "Longitude": null,
    "City": "QingHuangDao"
  },
  {
    "Name": "山海关老龙头景区-夯土炮台",
    "Website": "https://you.ctrip.com/sight/qinhuangdao132/145247214.html?scene=online",
    "Address": "秦皇岛市山海关区龙海大道1号老龙头景区内",
    "Phone": null,
    "Latitude": null,
    "Longitude": null,
    "City": "QingHuangDao"
  },
  {
    "Name": "抄案房",
    "Website": "https://you.ctrip.com/sight/qinhuangdao132/145247207.html?scene=online",
    "Address": "秦皇岛市山海关区古城西大街山海关总兵府景区山海镇总兵府内",
    "Phone": null,
    "Latitude": null,
    "Longitude": null,
    "City": "QingHuangDao"
  },
  {
    "Name": "北管子村史馆",
    "Website": "https://you.ctrip.com/sight/qinhuangdao132/145247206.html?scene=online",
    "Address": "河北省秦皇岛市山海关区第一关镇角山路",
    "Phone": null,
    "Latitude": null,
    "Longitude": null,
    "City": "QingHuangDao"
  },
  {
    "Name": "山海关区古城保护发展中心",
    "Website": "https://you.ctrip.com/sight/qinhuangdao132/145243782.html?scene=online",
    "Address": "河北省秦皇岛市山海关区古城南大街32-5号",
    "Phone": null,
    "Latitude": null,
    "Longitude": null,
    "City": "QingHuangDao"
  },
  {
    "Name": "广场鸽",
    "Website": "https://you.ctrip.com/sight/qinhuangdao132/145237419.html?scene=online",
    "Address": "秦皇岛市山海关区城西北7华里燕塞湖景区鸟语林内",
    "Phone": null,
    "Latitude": null,
    "Longitude": null,
    "City": "QingHuangDao"
  },
  {
    "Name": "端凝阁",
    "Website": "https://you.ctrip.com/sight/qinhuangdao132/145237358.html?scene=online",
    "Address": "秦皇岛市山海关区龙海大道1号山海行宫内",
    "Phone": null,
    "Latitude": null,
    "Longitude": null,
    "City": "QingHuangDao"
  },
  {
    "Name": "滑行龙",
    "Website": "https://you.ctrip.com/sight/qinhuangdao132/145237345.html?scene=online",
    "Address": "秦皇岛市山海关区龙海大道148号乐岛公园海洋嘉年华内",
    "Phone": null,
    "Latitude": null,
    "Longitude": null,
    "City": "QingHuangDao"
  },
  {
    "Name": "桓侯祠",
    "Website": "https://you.ctrip.com/sight/qinhuangdao132/145233792.html?scene=online",
    "Address": "秦皇岛市山海关区五佛山国际生态旅游度假区角山景区内",
    "Phone": null,
    "Latitude": null,
    "Longitude": null,
    "City": "QingHuangDao"
  },
  {
    "Name": "仪门游廊",
    "Website": "https://you.ctrip.com/sight/qinhuangdao132/145233776.html?scene=online",
    "Address": "秦皇岛市山海关区东大街1号天下第一关景区兵部分司内",
    "Phone": null,
    "Latitude": null,
    "Longitude": null,
    "City": "QingHuangDao"
  },
  {
    "Name": "山船文化宫",
    "Website": "https://you.ctrip.com/sight/qinhuangdao132/145227374.html?scene=online",
    "Address": "秦皇岛市山海关区上海道山海关开发区里士满假日酒店(秦皇岛山海关店)西侧约130米",
    "Phone": null,
    "Latitude": null,
    "Longitude": null,
    "City": "QingHuangDao"
  },
  {
    "Name": "图索房",
    "Website": "https://you.ctrip.com/sight/qinhuangdao132/145227366.html?scene=online",
    "Address": "秦皇岛市山海关区古城西大街山海关总兵府景区山海镇总兵府内",
    "Phone": null,
    "Latitude": null,
    "Longitude": null,
    "City": "QingHuangDao"
  },
  {
    "Name": "肖显读书处",
    "Website": "https://you.ctrip.com/sight/qinhuangdao132/145227352.html?scene=online",
    "Address": "秦皇岛市山海关区五佛山国际生态旅游度假区角山景区栖贤寺内",
    "Phone": null,
    "Latitude": null,
    "Longitude": null,
    "City": "QingHuangDao"
  },
  {
    "Name": "仪门",
    "Website": "https://you.ctrip.com/sight/qinhuangdao132/145224006.html?scene=online",
    "Address": "秦皇岛市山海关区古城西大街山海关总兵府景区山海镇总兵府内",
    "Phone": null,
    "Latitude": null,
    "Longitude": null,
    "City": "QingHuangDao"
  },
  {
    "Name": "聊斋奇宫",
    "Website": "https://you.ctrip.com/sight/qinhuangdao132/145217530.html?scene=online",
    "Address": "秦皇岛市山海关区古城南大街20-6号四条包子",
    "Phone": null,
    "Latitude": null,
    "Longitude": null,
    "City": "QingHuangDao"
  },
  {
    "Name": "咳嗽神殿",
    "Website": "https://you.ctrip.com/sight/qinhuangdao132/145217527.html?scene=online",
    "Address": "秦皇岛市山海关区五佛山国际生态旅游度假区角山景区栖贤寺内",
    "Phone": null,
    "Latitude": null,
    "Longitude": null,
    "City": "QingHuangDao"
  },
  {
    "Name": "探春桥",
    "Website": "https://you.ctrip.com/sight/qinhuangdao132/145215433.html?scene=online",
    "Address": "秦皇岛市山海关区东水关街23号(近火车站)莲花湖公园内",
    "Phone": null,
    "Latitude": null,
    "Longitude": null,
    "City": "QingHuangDao"
  },
  {
    "Name": "瓮城",
    "Website": "https://you.ctrip.com/sight/qinhuangdao132/145207554.html?scene=online",
    "Address": "秦皇岛市山海关区东大街1号天下第一关景区内",
    "Phone": null,
    "Latitude": null,
    "Longitude": null,
    "City": "QingHuangDao"
  },
  {
    "Name": "石门天堑",
    "Website": "https://you.ctrip.com/sight/qinhuangdao132/145207547.html?scene=online",
    "Address": "秦皇岛市山海关区三道关村附近长寿山景区内",
    "Phone": null,
    "Latitude": null,
    "Longitude": null,
    "City": "QingHuangDao"
  },
  {
    "Name": "药王岭",
    "Website": "https://you.ctrip.com/sight/qinhuangdao132/145205525.html?scene=online",
    "Address": "秦皇岛市山海关区三道关村附近长寿山景区内",
    "Phone": null,
    "Latitude": null,
    "Longitude": null,
    "City": "QingHuangDao"
  },
  {
    "Name": "海景社区科技馆",
    "Website": "https://you.ctrip.com/sight/qinhuangdao132/145204072.html?scene=online",
    "Address": "秦皇岛市山海关区正安街南海花园东北侧",
    "Phone": null,
    "Latitude": null,
    "Longitude": null,
    "City": "QingHuangDao"
  },
  {
    "Name": "甘露亭",
    "Website": "https://you.ctrip.com/sight/qinhuangdao132/145204035.html?scene=online",
    "Address": "秦皇岛市山海关区五佛山国际生态旅游度假区角山景区内",
    "Phone": null,
    "Latitude": null,
    "Longitude": null,
    "City": "QingHuangDao"
  },
  {
    "Name": "自旋滑车",
    "Website": "https://you.ctrip.com/sight/qinhuangdao132/145197613.html?scene=online",
    "Address": "秦皇岛市山海关区龙海大道148号乐岛公园海洋嘉年华内",
    "Phone": null,
    "Latitude": null,
    "Longitude": null,
    "City": "QingHuangDao"
  },
  {
    "Name": "心愿长廊",
    "Website": "https://you.ctrip.com/sight/qinhuangdao132/145194319.html?scene=online",
    "Address": "秦皇岛市山海关区古城东北片区大悲院内",
    "Phone": null,
    "Latitude": null,
    "Longitude": null,
    "City": "QingHuangDao"
  },
  {
    "Name": "千石壁",
    "Website": "https://you.ctrip.com/sight/qinhuangdao132/145194143.html?scene=online",
    "Address": "秦皇岛市山海关区小陈庄北燕塞湖景区内",
    "Phone": null,
    "Latitude": null,
    "Longitude": null,
    "City": "QingHuangDao"
  },
  {
    "Name": "灰松鼠",
    "Website": "https://you.ctrip.com/sight/qinhuangdao132/145194122.html?scene=online",
    "Address": "秦皇岛市山海关区燕塞湖路松鼠园内",
    "Phone": null,
    "Latitude": null,
    "Longitude": null,
    "City": "QingHuangDao"
  },
  {
    "Name": "王家大院-书房",
    "Website": "https://you.ctrip.com/sight/qinhuangdao132/145187686.html?scene=online",
    "Address": "秦皇岛市山海关区东三条29~31号王家大院内",
    "Phone": null,
    "Latitude": null,
    "Longitude": null,
    "City": "QingHuangDao"
  },
  {
    "Name": "范墨流香",
    "Website": "https://you.ctrip.com/sight/qinhuangdao132/145187660.html?scene=online",
    "Address": "秦皇岛市山海关区三道关村附近长寿山景区内",
    "Phone": null,
    "Latitude": null,
    "Longitude": null,
    "City": "QingHuangDao"
  },
  {
    "Name": "婚俗馆",
    "Website": "https://you.ctrip.com/sight/qinhuangdao132/145184296.html?scene=online",
    "Address": "秦皇岛市山海关区东三条29~31号王家大院内",
    "Phone": null,
    "Latitude": null,
    "Longitude": null,
    "City": "QingHuangDao"
  },
  {
    "Name": "明长城地理信息标石",
    "Website": "https://you.ctrip.com/sight/qinhuangdao132/145177766.html?scene=online",
    "Address": "秦皇岛市山海关区龙海大道1号老龙头景区内",
    "Phone": null,
    "Latitude": null,
    "Longitude": null,
    "City": "QingHuangDao"
  },
  {
    "Name": "小潮河城市滨河公园",
    "Website": "https://you.ctrip.com/sight/qinhuangdao132/145177760.html?scene=online",
    "Address": "河北省秦皇岛市山海关区北京东道",
    "Phone": null,
    "Latitude": null,
    "Longitude": null,
    "City": "QingHuangDao"
  },
  {
    "Name": "地藏殿",
    "Website": "https://you.ctrip.com/sight/qinhuangdao132/145177741.html?scene=online",
    "Address": "秦皇岛市山海关区古城东北片区大悲院内",
    "Phone": null,
    "Latitude": null,
    "Longitude": null,
    "City": "QingHuangDao"
  },
  {
    "Name": "山海关老龙头景区-碑记",
    "Website": "https://you.ctrip.com/sight/qinhuangdao132/145175607.html?scene=online",
    "Address": "秦皇岛市山海关区龙海大道1号老龙头景区内",
    "Phone": null,
    "Latitude": null,
    "Longitude": null,
    "City": "QingHuangDao"
  },
  {
    "Name": "小松林",
    "Website": "https://you.ctrip.com/sight/qinhuangdao132/145174179.html?scene=online",
    "Address": "秦皇岛市山海关区三道关村附近长寿山景区内",
    "Phone": null,
    "Latitude": null,
    "Longitude": null,
    "City": "QingHuangDao"
  },
  {
    "Name": "山海关景区-御碑亭",
    "Website": "https://you.ctrip.com/sight/qinhuangdao132/145174171.html?scene=online",
    "Address": "秦皇岛市山海关区龙海大道1号老龙头景区内",
    "Phone": null,
    "Latitude": null,
    "Longitude": null,
    "City": "QingHuangDao"
  },
  {
    "Name": "山海关老龙头景区-瓮城",
    "Website": "https://you.ctrip.com/sight/qinhuangdao132/145167785.html?scene=online",
    "Address": "秦皇岛市山海关区龙海大道1号老龙头景区内",
    "Phone": null,
    "Latitude": null,
    "Longitude": null,
    "City": "QingHuangDao"
  },
  {
    "Name": "寿山之魂",
    "Website": "https://you.ctrip.com/sight/qinhuangdao132/145167772.html?scene=online",
    "Address": "秦皇岛市山海关区三道关村附近长寿山景区内",
    "Phone": null,
    "Latitude": null,
    "Longitude": null,
    "City": "QingHuangDao"
  },
  {
    "Name": "三堂遗址保护区",
    "Website": "https://you.ctrip.com/sight/qinhuangdao132/145166240.html?scene=online",
    "Address": "秦皇岛市山海关区古城西大街山海关总兵府景区山海镇总兵府内",
    "Phone": null,
    "Latitude": null,
    "Longitude": null,
    "City": "QingHuangDao"
  },
  {
    "Name": "般若三昧",
    "Website": "https://you.ctrip.com/sight/qinhuangdao132/145165733.html?scene=online",
    "Address": "秦皇岛市山海关区南大街山海关古城景区",
    "Phone": null,
    "Latitude": null,
    "Longitude": null,
    "City": "QingHuangDao"
  },
  {
    "Name": "架阁库",
    "Website": "https://you.ctrip.com/sight/qinhuangdao132/145164270.html?scene=online",
    "Address": "秦皇岛市山海关区古城西大街山海关总兵府景区山海镇总兵府内",
    "Phone": null,
    "Latitude": null,
    "Longitude": null,
    "City": "QingHuangDao"
  },
  {
    "Name": "水上挑战者",
    "Website": "https://you.ctrip.com/sight/qinhuangdao132/145164258.html?scene=online",
    "Address": "秦皇岛市山海关区龙海大道148号乐岛公园海底总动员内",
    "Phone": null,
    "Latitude": null,
    "Longitude": null,
    "City": "QingHuangDao"
  },
  {
    "Name": "幽蝶溪",
    "Website": "https://you.ctrip.com/sight/qinhuangdao132/145157831.html?scene=online",
    "Address": "秦皇岛市山海关区三道关村附近长寿山景区内",
    "Phone": null,
    "Latitude": null,
    "Longitude": null,
    "City": "QingHuangDao"
  },
  {
    "Name": "乐岛海洋王国-冰点店",
    "Website": "https://you.ctrip.com/sight/qinhuangdao132/145157824.html?scene=online",
    "Address": "秦皇岛市山海关区龙海大道148号乐岛公园内",
    "Phone": null,
    "Latitude": null,
    "Longitude": null,
    "City": "QingHuangDao"
  },
  {
    "Name": "弘义阁",
    "Website": "https://you.ctrip.com/sight/qinhuangdao132/145154236.html?scene=online",
    "Address": "秦皇岛市山海关区龙海大道1号山海行宫内",
    "Phone": null,
    "Latitude": null,
    "Longitude": null,
    "City": "QingHuangDao"
  },
  {
    "Name": "客堂",
    "Website": "https://you.ctrip.com/sight/qinhuangdao132/145154234.html?scene=online",
    "Address": "秦皇岛市山海关区古城东北片区大悲院内",
    "Phone": null,
    "Latitude": null,
    "Longitude": null,
    "City": "QingHuangDao"
  },
  {
    "Name": "旱门关",
    "Website": "https://you.ctrip.com/sight/qinhuangdao132/145154222.html?scene=online",
    "Address": "秦皇岛市山海关区角山路角山长城内",
    "Phone": null,
    "Latitude": null,
    "Longitude": null,
    "City": "QingHuangDao"
  },
  {
    "Name": "乘黄",
    "Website": "https://you.ctrip.com/sight/qinhuangdao132/145147833.html?scene=online",
    "Address": "秦皇岛市山海关区龙海大道1号老龙头景区龙王庙内",
    "Phone": null,
    "Latitude": null,
    "Longitude": null,
    "City": "QingHuangDao"
  },
  {
    "Name": "大圣驾到儿童健康调理中心(老龙头路店)",
    "Website": "https://you.ctrip.com/sight/qinhuangdao132/145147813.html?scene=online",
    "Address": "河北省秦皇岛市山海关区老龙头路244-6号",
    "Phone": null,
    "Latitude": null,
    "Longitude": null,
    "City": "QingHuangDao"
  },
  {
    "Name": "服远楼",
    "Website": "https://you.ctrip.com/sight/qinhuangdao132/145147809.html?scene=online",
    "Address": "秦皇岛市山海关区南大街5-1号山海关古城内",
    "Phone": null,
    "Latitude": null,
    "Longitude": null,
    "City": "QingHuangDao"
  },
  {
    "Name": "逍遥桥",
    "Website": "https://you.ctrip.com/sight/qinhuangdao132/145147805.html?scene=online",
    "Address": "秦皇岛市山海关区三道关村附近长寿山景区内",
    "Phone": null,
    "Latitude": null,
    "Longitude": null,
    "City": "QingHuangDao"
  },
  {
    "Name": "凤凰山",
    "Website": "https://you.ctrip.com/sight/qinhuangdao132/145147804.html?scene=online",
    "Address": "秦皇岛市山海关区城东约6公里的望夫石村后山岗上孟姜女庙景区内",
    "Phone": null,
    "Latitude": null,
    "Longitude": null,
    "City": "QingHuangDao"
  },
  {
    "Name": "山海关老龙头景区-文物展室",
    "Website": "https://you.ctrip.com/sight/qinhuangdao132/145144311.html?scene=online",
    "Address": "秦皇岛市山海关区龙海大道1号老龙头景区把总署内",
    "Phone": null,
    "Latitude": null,
    "Longitude": null,
    "City": "QingHuangDao"
  },
  {
    "Name": "观音殿",
    "Website": "https://you.ctrip.com/sight/qinhuangdao132/145137861.html?scene=online",
    "Address": "秦皇岛市山海关区城东约6公里的望夫石村后山岗上孟姜女庙景区贞女祠内",
    "Phone": null,
    "Latitude": null,
    "Longitude": null,
    "City": "QingHuangDao"
  },
  {
    "Name": "畅音阁",
    "Website": "https://you.ctrip.com/sight/qinhuangdao132/145137858.html?scene=online",
    "Address": "秦皇岛市山海关区龙海大道1号山海行宫内",
    "Phone": null,
    "Latitude": null,
    "Longitude": null,
    "City": "QingHuangDao"
  },
  {
    "Name": "共工亭",
    "Website": "https://you.ctrip.com/sight/qinhuangdao132/145137854.html?scene=online",
    "Address": "河北省秦皇岛市山海关区五佛山国际生态旅游度假区角山景区内",
    "Phone": null,
    "Latitude": null,
    "Longitude": null,
    "City": "QingHuangDao"
  },
  {
    "Name": "山中月镜",
    "Website": "https://you.ctrip.com/sight/qinhuangdao132/145127898.html?scene=online",
    "Address": "秦皇岛市山海关区城西北7华里燕塞湖景区内",
    "Phone": null,
    "Latitude": null,
    "Longitude": null,
    "City": "QingHuangDao"
  },
  {
    "Name": "山海关区群众文化艺术活动协会",
    "Website": "https://you.ctrip.com/sight/qinhuangdao132/145125363.html?scene=online",
    "Address": "秦皇岛市山海关区教军场路天成宾馆(秦皇岛山海关店)东南侧约70米",
    "Phone": null,
    "Latitude": null,
    "Longitude": null,
    "City": "QingHuangDao"
  },
  {
    "Name": "南海口关",
    "Website": "https://you.ctrip.com/sight/qinhuangdao132/145125348.html?scene=online",
    "Address": "秦皇岛市山海关区龙海大道1号老龙头景区内",
    "Phone": null,
    "Latitude": null,
    "Longitude": null,
    "City": "QingHuangDao"
  },
  {
    "Name": "悬洞窥天",
    "Website": "https://you.ctrip.com/sight/qinhuangdao132/145125342.html?scene=online",
    "Address": "秦皇岛市山海关区三道关村附近长寿山景区内",
    "Phone": null,
    "Latitude": null,
    "Longitude": null,
    "City": "QingHuangDao"
  },
  {
    "Name": "五福壁",
    "Website": "https://you.ctrip.com/sight/qinhuangdao132/145123874.html?scene=online",
    "Address": "秦皇岛市山海关区古城东北片区大悲院内",
    "Phone": null,
    "Latitude": null,
    "Longitude": null,
    "City": "QingHuangDao"
  },
  {
    "Name": "钟楼",
    "Website": "https://you.ctrip.com/sight/qinhuangdao132/145123867.html?scene=online",
    "Address": "秦皇岛市山海关区龙海大道1号老龙头景区海神庙内",
    "Phone": null,
    "Latitude": null,
    "Longitude": null,
    "City": "QingHuangDao"
  },
  {
    "Name": "赤麻鸭",
    "Website": "https://you.ctrip.com/sight/qinhuangdao132/145117844.html?scene=online",
    "Address": "秦皇岛市山海关区城西北7华里燕塞湖景区鸟语林内",
    "Phone": null,
    "Latitude": null,
    "Longitude": null,
    "City": "QingHuangDao"
  },
  {
    "Name": "骆驼峰",
    "Website": "https://you.ctrip.com/sight/qinhuangdao132/145117777.html?scene=online",
    "Address": "秦皇岛市山海关区城西北7华里燕塞湖景区内",
    "Phone": null,
    "Latitude": null,
    "Longitude": null,
    "City": "QingHuangDao"
  },
  {
    "Name": "龙马",
    "Website": "https://you.ctrip.com/sight/qinhuangdao132/145117775.html?scene=online",
    "Address": "秦皇岛市山海关区龙海大道1号老龙头景区龙王庙内",
    "Phone": null,
    "Latitude": null,
    "Longitude": null,
    "City": "QingHuangDao"
  },
  {
    "Name": "神威大将军炮",
    "Website": "https://you.ctrip.com/sight/qinhuangdao132/145117771.html?scene=online",
    "Address": "秦皇岛市山海关区南大街5-1号山海关古城内",
    "Phone": null,
    "Latitude": null,
    "Longitude": null,
    "City": "QingHuangDao"
  },
  {
    "Name": "吟荷桥",
    "Website": "https://you.ctrip.com/sight/qinhuangdao132/145115378.html?scene=online",
    "Address": "秦皇岛市山海关区东水关街23号(近火车站)莲花湖公园内",
    "Phone": null,
    "Latitude": null,
    "Longitude": null,
    "City": "QingHuangDao"
  },
  {
    "Name": "祥瑞潭",
    "Website": "https://you.ctrip.com/sight/qinhuangdao132/145109014.html?scene=online",
    "Address": "秦皇岛市山海关区古城东北片区大悲院内",
    "Phone": null,
    "Latitude": null,
    "Longitude": null,
    "City": "QingHuangDao"
  },
  {
    "Name": "山海关区图书馆",
    "Website": "https://you.ctrip.com/sight/qinhuangdao132/144104098.html?scene=online",
    "Address": "河北省秦皇岛市山海关区西顺城街3-2号",
    "Phone": null,
    "Latitude": null,
    "Longitude": null,
    "City": "QingHuangDao"
  },
  {
    "Name": "潮河",
    "Website": "https://you.ctrip.com/sight/qinhuangdao132/144103957.html?scene=online",
    "Address": "河北省秦皇岛市山海关区",
    "Phone": null,
    "Latitude": null,
    "Longitude": null,
    "City": "QingHuangDao"
  },
  {
    "Name": "玄阳洞",
    "Website": "https://you.ctrip.com/sight/qinhuangdao132/144103897.html?scene=online",
    "Address": "河北省秦皇岛市山海关区长寿山路",
    "Phone": null,
    "Latitude": null,
    "Longitude": null,
    "City": "QingHuangDao"
  },
  {
    "Name": "福寿园",
    "Website": "https://you.ctrip.com/sight/qinhuangdao132/144103792.html?scene=online",
    "Address": "河北省秦皇岛市山海关区通棉路东50米",
    "Phone": null,
    "Latitude": null,
    "Longitude": null,
    "City": "QingHuangDao"
  },
  {
    "Name": "秦皇岛市山海关区基督教福音堂",
    "Website": "https://you.ctrip.com/sight/qinhuangdao132/144103655.html?scene=online",
    "Address": "秦皇岛市山海关区西关大街78号",
    "Phone": null,
    "Latitude": null,
    "Longitude": null,
    "City": "QingHuangDao"
  },
  {
    "Name": "干石河",
    "Website": "https://you.ctrip.com/sight/qinhuangdao132/144103638.html?scene=online",
    "Address": "河北省秦皇岛市山海关区",
    "Phone": null,
    "Latitude": null,
    "Longitude": null,
    "City": "QingHuangDao"
  },
  {
    "Name": "祥蔼博桑",
    "Website": "https://you.ctrip.com/sight/qinhuangdao132/143756733.html?scene=online",
    "Address": "秦皇岛市山海关区关城西路山海关古城景区",
    "Phone": null,
    "Latitude": null,
    "Longitude": null,
    "City": "QingHuangDao"
  },
  {
    "Name": "十二生肖太岁神院",
    "Website": "https://you.ctrip.com/sight/qinhuangdao132/143743522.html?scene=online",
    "Address": "河北省秦皇岛市山海关区西大街55号",
    "Phone": null,
    "Latitude": null,
    "Longitude": null,
    "City": "QingHuangDao"
  },
  {
    "Name": "临闾楼",
    "Website": "https://you.ctrip.com/sight/qinhuangdao132/143740740.html?scene=online",
    "Address": "秦皇岛市山海关区黄家胡同与墨水池胡同交叉路口往东北约250米",
    "Phone": null,
    "Latitude": null,
    "Longitude": null,
    "City": "QingHuangDao"
  },
  {
    "Name": "顺成儿童乐园",
    "Website": "https://you.ctrip.com/sight/qinhuangdao132/143738965.html?scene=online",
    "Address": "河北省秦皇岛市山海关区顺城商厦民乐医药店南侧上楼",
    "Phone": null,
    "Latitude": null,
    "Longitude": null,
    "City": "QingHuangDao"
  },
  {
    "Name": "首山二郎庙风景区",
    "Website": "https://you.ctrip.com/sight/qinhuangdao132/143734324.html?scene=online",
    "Address": "河北省秦皇岛市山海关区首山二郎庙风景区(燕塞湖景区东南)",
    "Phone": null,
    "Latitude": null,
    "Longitude": null,
    "City": "QingHuangDao"
  },
  {
    "Name": "薰风和熙",
    "Website": "https://you.ctrip.com/sight/qinhuangdao132/143729533.html?scene=online",
    "Address": "秦皇岛市山海关区第一关路山海关风景区-天下第一关景区",
    "Phone": null,
    "Latitude": null,
    "Longitude": null,
    "City": "QingHuangDao"
  },
  {
    "Name": "跆风搏击俱乐部",
    "Website": "https://you.ctrip.com/sight/qinhuangdao132/143714420.html?scene=online",
    "Address": "河北省秦皇岛市山海关区港山大街博维龙庭小区1号楼",
    "Phone": null,
    "Latitude": null,
    "Longitude": null,
    "City": "QingHuangDao"
  },
  {
    "Name": "宗教文化馆",
    "Website": "https://you.ctrip.com/sight/qinhuangdao132/143711083.html?scene=online",
    "Address": "秦皇岛市山海关区东三条29~31号王家大院内",
    "Phone": null,
    "Latitude": null,
    "Longitude": null,
    "City": "QingHuangDao"
  },
  {
    "Name": "山海梵禅(总店)",
    "Website": "https://you.ctrip.com/sight/qinhuangdao132/143697132.html?scene=online",
    "Address": "河北省秦皇岛市山海关区教军场路兴华商城4号楼",
    "Phone": null,
    "Latitude": null,
    "Longitude": null,
    "City": "QingHuangDao"
  },
  {
    "Name": "英皇国际马术俱乐部",
    "Website": "https://you.ctrip.com/sight/qinhuangdao132/143696447.html?scene=online",
    "Address": "河北省秦皇岛市山海关区石河镇龙海大道161号",
    "Phone": null,
    "Latitude": null,
    "Longitude": null,
    "City": "QingHuangDao"
  },
  {
    "Name": "慈愍寺",
    "Website": "https://you.ctrip.com/sight/qinhuangdao132/134078586.html?scene=online",
    "Address": "河北省秦皇岛市山海关区西大街山海关古城景区",
    "Phone": null,
    "Latitude": null,
    "Longitude": null,
    "City": "QingHuangDao"
  },
  {
    "Name": "双文井",
    "Website": "https://you.ctrip.com/sight/qinhuangdao132/134071366.html?scene=online",
    "Address": "秦皇岛市山海关区钟鼓楼旁",
    "Phone": null,
    "Latitude": null,
    "Longitude": null,
    "City": "QingHuangDao"
  },
  {
    "Name": "榆关抗战纪念碑",
    "Website": "https://you.ctrip.com/sight/qinhuangdao132/134071256.html?scene=online",
    "Address": "河北省秦皇岛市山海关区关城南路57号",
    "Phone": null,
    "Latitude": null,
    "Longitude": null,
    "City": "QingHuangDao"
  },
  {
    "Name": "威远城遗址",
    "Website": "https://you.ctrip.com/sight/qinhuangdao132/112654870.html?scene=online",
    "Address": "河北省秦皇岛市山海关区乔家沟村",
    "Phone": null,
    "Latitude": null,
    "Longitude": null,
    "City": "QingHuangDao"
  },
  {
    "Name": "承恩驿",
    "Website": "https://you.ctrip.com/sight/qinhuangdao132/112649444.html?scene=online",
    "Address": "秦皇岛市山海关区北马道秦皇岛山海假日酒店西南门南侧约80米",
    "Phone": null,
    "Latitude": null,
    "Longitude": null,
    "City": "QingHuangDao"
  },
  {
    "Name": "鑫华乔氏台球会所",
    "Website": "https://you.ctrip.com/sight/qinhuangdao132/79996656.html?scene=online",
    "Address": "河北省秦皇岛市山海关区110号兴华商城1号楼3楼",
    "Phone": "13333283201",
    "Latitude": null,
    "Longitude": null,
    "City": "QingHuangDao"
  },
  {
    "Name": "车友来汽车运动公园",
    "Website": "https://you.ctrip.com/sight/qinhuangdao132/5612349.html?scene=online",
    "Address": "河北省秦皇岛市山海关区龙海大道169号",
    "Phone": "13903352010",
    "Latitude": null,
    "Longitude": null,
    "City": "QingHuangDao"
  },
  {
    "Name": "榆关广场",
    "Website": "https://you.ctrip.com/sight/qinhuangdao132/4616769.html?scene=online",
    "Address": "河北省秦皇岛市山海关区关城西路38号",
    "Phone": null,
    "Latitude": null,
    "Longitude": null,
    "City": "QingHuangDao"
  },
  {
    "Name": "爱琴海音乐广场",
    "Website": "https://you.ctrip.com/sight/qinhuangdao132/4616767.html?scene=online",
    "Address": "河北秦皇岛市山海关区龙海大道148号",
    "Phone": null,
    "Latitude": null,
    "Longitude": null,
    "City": "QingHuangDao"
  },
  {
    "Name": "湿地游园",
    "Website": "https://you.ctrip.com/sight/qinhuangdao132/4616342.html?scene=online",
    "Address": "河北省秦皇岛市山海关区城西北7华里燕塞湖景区内",
    "Phone": null,
    "Latitude": null,
    "Longitude": null,
    "City": "QingHuangDao"
  },
  {
    "Name": "山西会馆",
    "Website": "https://you.ctrip.com/sight/qinhuangdao132/4616253.html?scene=online",
    "Address": "秦皇岛市山海关区东大街9号",
    "Phone": null,
    "Latitude": null,
    "Longitude": null,
    "City": "QingHuangDao"
  },
  {
    "Name": "辰龙酉鸡太岁殿",
    "Website": "https://you.ctrip.com/sight/qinhuangdao132/4616246.html?scene=online",
    "Address": "秦皇岛市山海关区古城西大街山海关总兵府景区十二生肖太岁神院内",
    "Phone": null,
    "Latitude": null,
    "Longitude": null,
    "City": "QingHuangDao"
  },
  {
    "Name": "山海关老龙头景区-民间艺术展",
    "Website": "https://you.ctrip.com/sight/qinhuangdao132/4616241.html?scene=online",
    "Address": "秦皇岛市山海关区龙海大道1号老龙头景区把总署内",
    "Phone": null,
    "Latitude": null,
    "Longitude": null,
    "City": "QingHuangDao"
  },
  {
    "Name": "国家方志馆秦皇岛公馆",
    "Website": "https://you.ctrip.com/sight/qinhuangdao132/4616234.html?scene=online",
    "Address": "河北省秦皇岛市山海关区东大街8号",
    "Phone": null,
    "Latitude": null,
    "Longitude": null,
    "City": "QingHuangDao"
  },
  {
    "Name": "关帝庙",
    "Website": "https://you.ctrip.com/sight/qinhuangdao132/4616226.html?scene=online",
    "Address": "河北省秦皇岛市山海关区西大街55号",
    "Phone": null,
    "Latitude": null,
    "Longitude": null,
    "City": "QingHuangDao"
  },
  {
    "Name": "旋靥潭",
    "Website": "https://you.ctrip.com/sight/qinhuangdao132/1675457.html?scene=online",
    "Address": "秦皇岛市山海关区三道关村附近长寿山景区内",
    "Phone": null,
    "Latitude": null,
    "Longitude": null,
    "City": "QingHuangDao"
  },
  {
    "Name": "寿字碑林",
    "Website": "https://you.ctrip.com/sight/qinhuangdao132/1675418.html?scene=online",
    "Address": "秦皇岛市山海关区三道关村附近长寿山景区内",
    "Phone": null,
    "Latitude": null,
    "Longitude": null,
    "City": "QingHuangDao"
  },
  {
    "Name": "同赢替替战士基地",
    "Website": "https://you.ctrip.com/sight/qinhuangdao132/1408980.html?scene=online",
    "Address": "秦皇岛市山海关区替替战士基地(乐岛斜对面)",
    "Phone": null,
    "Latitude": null,
    "Longitude": null,
    "City": "QingHuangDao"
  },
  {
    "Name": "艾尚多肉植物园",
    "Website": "https://you.ctrip.com/sight/qinhuangdao132/145395337.html?scene=online",
    "Address": "河北省秦皇岛市山海关区沟渠寨村",
    "Phone": null,
    "Latitude": null,
    "Longitude": null,
    "City": "QingHuangDao"
  },
  {
    "Name": "幽闲谷",
    "Website": "https://you.ctrip.com/sight/qinhuangdao132/145435493.html?scene=online",
    "Address": "秦皇岛市山海关区三道关村附近长寿山景区内",
    "Phone": null,
    "Latitude": null,
    "Longitude": null,
    "City": "QingHuangDao"
  },
  {
    "Name": "铺房",
    "Website": "https://you.ctrip.com/sight/qinhuangdao132/145464951.html?scene=online",
    "Address": "秦皇岛市山海关区角山路角山长城内",
    "Phone": null,
    "Latitude": null,
    "Longitude": null,
    "City": "QingHuangDao"
  },
  {
    "Name": "观音殿",
    "Website": "https://you.ctrip.com/sight/qinhuangdao132/145491309.html?scene=online",
    "Address": "秦皇岛市山海关区古城东北片区大悲院内",
    "Phone": null,
    "Latitude": null,
    "Longitude": null,
    "City": "QingHuangDao"
  },
  {
    "Name": "李时珍石窟",
    "Website": "https://you.ctrip.com/sight/qinhuangdao132/145520659.html?scene=online",
    "Address": "秦皇岛市山海关区三道关村附近长寿山景区内",
    "Phone": null,
    "Latitude": null,
    "Longitude": null,
    "City": "QingHuangDao"
  },
  {
    "Name": "山海关老龙头景区-天开海岳碑刻",
    "Website": "https://you.ctrip.com/sight/qinhuangdao132/145543859.html?scene=online",
    "Address": "秦皇岛市山海关区龙海大道1号老龙头景区内",
    "Phone": null,
    "Latitude": null,
    "Longitude": null,
    "City": "QingHuangDao"
  },
  {
    "Name": "大小灵塔",
    "Website": "https://you.ctrip.com/sight/qinhuangdao132/145553726.html?scene=online",
    "Address": "秦皇岛市山海关区小陈庄北燕塞湖景区内",
    "Phone": null,
    "Latitude": null,
    "Longitude": null,
    "City": "QingHuangDao"
  },
  {
    "Name": "关帝庙",
    "Website": "https://you.ctrip.com/sight/qinhuangdao132/145580996.html?scene=online",
    "Address": "秦皇岛市山海关区三道关村附近长寿山景区内",
    "Phone": null,
    "Latitude": null,
    "Longitude": null,
    "City": "QingHuangDao"
  },
  {
    "Name": "勤求",
    "Website": "https://you.ctrip.com/sight/qinhuangdao132/145599179.html?scene=online",
    "Address": "秦皇岛市山海关区三道关村附近长寿山景区内",
    "Phone": null,
    "Latitude": null,
    "Longitude": null,
    "City": "QingHuangDao"
  },
  {
    "Name": "黄牛山",
    "Website": "https://you.ctrip.com/sight/qinhuangdao132/145641744.html?scene=online",
    "Address": "秦皇岛市山海关区三道关村附近长寿山景区内",
    "Phone": null,
    "Latitude": null,
    "Longitude": null,
    "City": "QingHuangDao"
  },
  {
    "Name": "念佛堂",
    "Website": "https://you.ctrip.com/sight/qinhuangdao132/145657822.html?scene=online",
    "Address": "秦皇岛市山海关区古城东北片区大悲院内",
    "Phone": null,
    "Latitude": null,
    "Longitude": null,
    "City": "QingHuangDao"
  },
  {
    "Name": "榆峰阁",
    "Website": "https://you.ctrip.com/sight/qinhuangdao132/145703149.html?scene=online",
    "Address": "秦皇岛市山海关区东大街1号天下第一关景区兵部分司内",
    "Phone": null,
    "Latitude": null,
    "Longitude": null,
    "City": "QingHuangDao"
  },
  {
    "Name": "孟宅",
    "Website": "https://you.ctrip.com/sight/qinhuangdao132/145716669.html?scene=online",
    "Address": "秦皇岛市山海关区城东约6公里的望夫石村后山岗上孟姜女庙景区内",
    "Phone": null,
    "Latitude": null,
    "Longitude": null,
    "City": "QingHuangDao"
  },
  {
    "Name": "白鹭岛龙头帆船俱乐部",
    "Website": "https://you.ctrip.com/sight/qinhuangdao132/145797293.html?scene=online",
    "Address": "河北省秦皇岛市山海关区天福中路1号",
    "Phone": null,
    "Latitude": null,
    "Longitude": null,
    "City": "QingHuangDao"
  },
  {
    "Name": "西关浴池",
    "Website": "https://you.ctrip.com/sight/qinhuangdao132/145882729.html?scene=online",
    "Address": "河北省秦皇岛市山海关区西关大街98号",
    "Phone": null,
    "Latitude": null,
    "Longitude": null,
    "City": "QingHuangDao"
  },
  {
    "Name": "乔氏台球会所(石河路店)",
    "Website": "https://you.ctrip.com/sight/qinhuangdao132/145946522.html?scene=online",
    "Address": "河北省秦皇岛市山海关区石河路77号兴明家具广场院内右侧玻璃门上二楼",
    "Phone": null,
    "Latitude": null,
    "Longitude": null,
    "City": "QingHuangDao"
  },
  {
    "Name": "时代PARTY KTV",
    "Website": "https://you.ctrip.com/sight/qinhuangdao132/145986165.html?scene=online",
    "Address": "秦皇岛市山海关区南海西路147号",
    "Phone": null,
    "Latitude": null,
    "Longitude": null,
    "City": "QingHuangDao"
  },
  {
    "Name": "禧尚羽毛球乒乓球",
    "Website": "https://you.ctrip.com/sight/qinhuangdao132/145986159.html?scene=online",
    "Address": "秦皇岛市山海关区秦山路环城家俱建材西北侧约80米",
    "Phone": null,
    "Latitude": null,
    "Longitude": null,
    "City": "QingHuangDao"
  },
  {
    "Name": "望洋楼广场",
    "Website": "https://you.ctrip.com/sight/qinhuangdao132/145972174.html?scene=online",
    "Address": "河北省秦皇岛市山海关区关城南路85号",
    "Phone": null,
    "Latitude": null,
    "Longitude": null,
    "City": "QingHuangDao"
  },
  {
    "Name": "山海关区沐洺洗浴中心",
    "Website": "https://you.ctrip.com/sight/qinhuangdao132/145966444.html?scene=online",
    "Address": "秦皇岛市山海关区河北省农村信用社(陈庄信用社)东南侧约220米",
    "Phone": null,
    "Latitude": null,
    "Longitude": null,
    "City": "QingHuangDao"
  },
  {
    "Name": "山船浴池",
    "Website": "https://you.ctrip.com/sight/qinhuangdao132/145966413.html?scene=online",
    "Address": "秦皇岛市山海关区船厂路山船幼儿园东侧约70米",
    "Phone": null,
    "Latitude": null,
    "Longitude": null,
    "City": "QingHuangDao"
  },
  {
    "Name": "秦皇岛市雏鹰篮球俱乐部",
    "Website": "https://you.ctrip.com/sight/qinhuangdao132/145962225.html?scene=online",
    "Address": "山海关区上海道77号院内",
    "Phone": null,
    "Latitude": null,
    "Longitude": null,
    "City": "QingHuangDao"
  },
  {
    "Name": "夏威夷海滩",
    "Website": "https://you.ctrip.com/sight/qinhuangdao132/145956503.html?scene=online",
    "Address": "秦皇岛市山海关区龙海大道148号乐岛公园内",
    "Phone": null,
    "Latitude": null,
    "Longitude": null,
    "City": "QingHuangDao"
  },
  {
    "Name": "93桌球俱乐部",
    "Website": "https://you.ctrip.com/sight/qinhuangdao132/145956436.html?scene=online",
    "Address": "河北省秦皇岛市山海关区古御路93号",
    "Phone": null,
    "Latitude": null,
    "Longitude": null,
    "City": "QingHuangDao"
  },
  {
    "Name": "尚水洗浴(站西街店)",
    "Website": "https://you.ctrip.com/sight/qinhuangdao132/145946523.html?scene=online",
    "Address": "秦皇岛市山海关区站西街山海关第一行车公寓西南侧约80米",
    "Phone": null,
    "Latitude": null,
    "Longitude": null,
    "City": "QingHuangDao"
  },
  {
    "Name": "天水沐浴会馆",
    "Website": "https://you.ctrip.com/sight/qinhuangdao132/145942283.html?scene=online",
    "Address": "河北省秦皇岛市山海关区站西街北（山海关第一行车公寓西南侧约30米）",
    "Phone": null,
    "Latitude": null,
    "Longitude": null,
    "City": "QingHuangDao"
  },
  {
    "Name": "山海关区晓刚信鸽俱乐部",
    "Website": "https://you.ctrip.com/sight/qinhuangdao132/145936568.html?scene=online",
    "Address": "秦皇岛市山海关区南马道山海关古城景区",
    "Phone": null,
    "Latitude": null,
    "Longitude": null,
    "City": "QingHuangDao"
  },
  {
    "Name": "西河洗浴",
    "Website": "https://you.ctrip.com/sight/qinhuangdao132/145926644.html?scene=online",
    "Address": "河北省秦皇岛市山海关区西关综合市场西侧正东方向21米",
    "Phone": null,
    "Latitude": null,
    "Longitude": null,
    "City": "QingHuangDao"
  },
  {
    "Name": "山海关乔氏台球文化体育产业园(二期)",
    "Website": "https://you.ctrip.com/sight/qinhuangdao132/145916748.html?scene=online",
    "Address": "秦皇岛市山海关区石河路左岸香颂西南侧约60米",
    "Phone": null,
    "Latitude": null,
    "Longitude": null,
    "City": "QingHuangDao"
  },
  {
    "Name": "惠友台球俱乐部",
    "Website": "https://you.ctrip.com/sight/qinhuangdao132/145894445.html?scene=online",
    "Address": "秦皇岛市山海关区兴隆街兴隆小学东侧约60米",
    "Phone": null,
    "Latitude": null,
    "Longitude": null,
    "City": "QingHuangDao"
  },
  {
    "Name": "龙泉山浴池",
    "Website": "https://you.ctrip.com/sight/qinhuangdao132/145892658.html?scene=online",
    "Address": "秦皇岛市山海关区关城南路山海关人民医院404分院北侧约90米",
    "Phone": null,
    "Latitude": null,
    "Longitude": null,
    "City": "QingHuangDao"
  },
  {
    "Name": "尚水洗浴(华粤小区店)",
    "Website": "https://you.ctrip.com/sight/qinhuangdao132/145886904.html?scene=online",
    "Address": "秦皇岛市山海关区港山大街建安小区东南侧约100米",
    "Phone": null,
    "Latitude": null,
    "Longitude": null,
    "City": "QingHuangDao"
  },
  {
    "Name": "洗意·精致洗护(南关大街店)",
    "Website": "https://you.ctrip.com/sight/qinhuangdao132/145886888.html?scene=online",
    "Address": "河北省秦皇岛市山海关区兴华中心商务区1号楼",
    "Phone": null,
    "Latitude": null,
    "Longitude": null,
    "City": "QingHuangDao"
  },
  {
    "Name": "蓝希篮球俱乐部",
    "Website": "https://you.ctrip.com/sight/qinhuangdao132/145876957.html?scene=online",
    "Address": "河北省秦皇岛市山海关区关城西路34号",
    "Phone": null,
    "Latitude": null,
    "Longitude": null,
    "City": "QingHuangDao"
  },
  {
    "Name": "风尚台球",
    "Website": "https://you.ctrip.com/sight/qinhuangdao132/145876949.html?scene=online",
    "Address": "秦皇岛市山海关区船厂路山船幼儿园东南侧约130米",
    "Phone": null,
    "Latitude": null,
    "Longitude": null,
    "City": "QingHuangDao"
  },
  {
    "Name": "唐子寨浴池",
    "Website": "https://you.ctrip.com/sight/qinhuangdao132/145867066.html?scene=online",
    "Address": "河北省秦皇岛市山海关区",
    "Phone": null,
    "Latitude": null,
    "Longitude": null,
    "City": "QingHuangDao"
  },
  {
    "Name": "尚水洗浴(火车站店)",
    "Website": "https://you.ctrip.com/sight/qinhuangdao132/145842901.html?scene=online",
    "Address": "秦皇岛市山海关区莲花湖商住小区北区24号",
    "Phone": null,
    "Latitude": null,
    "Longitude": null,
    "City": "QingHuangDao"
  },
  {
    "Name": "园霖泉浴池",
    "Website": "https://you.ctrip.com/sight/qinhuangdao132/145837083.html?scene=online",
    "Address": "秦皇岛市山海关区关城南路山海关人民医院404分院北侧约70米",
    "Phone": null,
    "Latitude": null,
    "Longitude": null,
    "City": "QingHuangDao"
  },
  {
    "Name": "山羽运动馆",
    "Website": "https://you.ctrip.com/sight/qinhuangdao132/145827151.html?scene=online",
    "Address": "秦皇岛市山海关区高建庄路与秦山路交叉路口往西约200米",
    "Phone": null,
    "Latitude": null,
    "Longitude": null,
    "City": "QingHuangDao"
  },
  {
    "Name": "九河大众洗浴有限公司",
    "Website": "https://you.ctrip.com/sight/qinhuangdao132/145817149.html?scene=online",
    "Address": "秦皇岛市山海关区南大街兴华小区(货场前街)西南侧",
    "Phone": null,
    "Latitude": null,
    "Longitude": null,
    "City": "QingHuangDao"
  },
  {
    "Name": "漫水庭养生洗浴",
    "Website": "https://you.ctrip.com/sight/qinhuangdao132/145817148.html?scene=online",
    "Address": "河北省秦皇岛市山海关区秦山东路十五号孟家店",
    "Phone": null,
    "Latitude": null,
    "Longitude": null,
    "City": "QingHuangDao"
  },
  {
    "Name": "超盛台球俱乐部",
    "Website": "https://you.ctrip.com/sight/qinhuangdao132/145797307.html?scene=online",
    "Address": "秦皇岛市山海关区",
    "Phone": null,
    "Latitude": null,
    "Longitude": null,
    "City": "QingHuangDao"
  },
  {
    "Name": "边墙子浴池",
    "Website": "https://you.ctrip.com/sight/qinhuangdao132/145797239.html?scene=online",
    "Address": "河北省秦皇岛市山海关区边墙子村",
    "Phone": null,
    "Latitude": null,
    "Longitude": null,
    "City": "QingHuangDao"
  },
  {
    "Name": "山海关久久草莓采摘园",
    "Website": "https://you.ctrip.com/sight/qinhuangdao132/145787296.html?scene=online",
    "Address": "河北省秦皇岛市山海关区燕塞湖路",
    "Phone": null,
    "Latitude": null,
    "Longitude": null,
    "City": "QingHuangDao"
  },
  {
    "Name": "乔氏台球(御山路店)",
    "Website": "https://you.ctrip.com/sight/qinhuangdao132/145777232.html?scene=online",
    "Address": "秦皇岛市山海关区御山路山海人家小区西南侧",
    "Phone": null,
    "Latitude": null,
    "Longitude": null,
    "City": "QingHuangDao"
  },
  {
    "Name": "恒温游泳中心",
    "Website": "https://you.ctrip.com/sight/qinhuangdao132/145757243.html?scene=online",
    "Address": "秦皇岛市山海关区平安里街平安东里",
    "Phone": null,
    "Latitude": null,
    "Longitude": null,
    "City": "QingHuangDao"
  },
  {
    "Name": "爱心浴池",
    "Website": "https://you.ctrip.com/sight/qinhuangdao132/145757240.html?scene=online",
    "Address": "河北省秦皇岛市山海关区山开一号路与滨河路交叉口南520米",
    "Phone": null,
    "Latitude": null,
    "Longitude": null,
    "City": "QingHuangDao"
  },
  {
    "Name": "榆关公园",
    "Website": "https://you.ctrip.com/sight/qinhuangdao132/145722109.html?scene=online",
    "Address": "河北省秦皇岛市山海关区关城南路与关城西路交叉口向东100米",
    "Phone": null,
    "Latitude": null,
    "Longitude": null,
    "City": "QingHuangDao"
  },
  {
    "Name": "鸵鸟",
    "Website": "https://you.ctrip.com/sight/qinhuangdao132/145716746.html?scene=online",
    "Address": "秦皇岛市山海关区城西北7华里燕塞湖景区鸟语林内",
    "Phone": null,
    "Latitude": null,
    "Longitude": null,
    "City": "QingHuangDao"
  },
  {
    "Name": "清泉浴池(工人街店)",
    "Website": "https://you.ctrip.com/sight/qinhuangdao132/145716649.html?scene=online",
    "Address": "秦皇岛市山海关区桥梁厂工人新村",
    "Phone": null,
    "Latitude": null,
    "Longitude": null,
    "City": "QingHuangDao"
  },
  {
    "Name": "山海关望海度假村(老龙头店)",
    "Website": "https://you.ctrip.com/sight/qinhuangdao132/145712158.html?scene=online",
    "Address": "河北省秦皇岛市山海关区龙海大道望海路1号",
    "Phone": null,
    "Latitude": null,
    "Longitude": null,
    "City": "QingHuangDao"
  },
  {
    "Name": "关帝庙",
    "Website": "https://you.ctrip.com/sight/qinhuangdao132/145710698.html?scene=online",
    "Address": "秦皇岛市山海关区龙海大道1号老龙头景区龙武营内",
    "Phone": null,
    "Latitude": null,
    "Longitude": null,
    "City": "QingHuangDao"
  },
  {
    "Name": "夜猫台球俱乐部",
    "Website": "https://you.ctrip.com/sight/qinhuangdao132/145710691.html?scene=online",
    "Address": "河北省秦皇岛市山海关区南关大街6号兴华商城2号楼3-D-4室",
    "Phone": null,
    "Latitude": null,
    "Longitude": null,
    "City": "QingHuangDao"
  },
  {
    "Name": "徐达将台",
    "Website": "https://you.ctrip.com/sight/qinhuangdao132/145706663.html?scene=online",
    "Address": "秦皇岛市山海关区龙海大道1号老龙头景区内",
    "Phone": null,
    "Latitude": null,
    "Longitude": null,
    "City": "QingHuangDao"
  },
  {
    "Name": "山海关城楼",
    "Website": "https://you.ctrip.com/sight/qinhuangdao132/145706642.html?scene=online",
    "Address": "河北省秦皇岛市山海关区东大街1号天下第一关景区",
    "Phone": null,
    "Latitude": null,
    "Longitude": null,
    "City": "QingHuangDao"
  },
  {
    "Name": "好妈妈母婴百货(山海关南海花园店)",
    "Website": "https://you.ctrip.com/sight/qinhuangdao132/145706627.html?scene=online",
    "Address": "老龙头路115-11门市一层",
    "Phone": null,
    "Latitude": null,
    "Longitude": null,
    "City": "QingHuangDao"
  },
  {
    "Name": "承发房",
    "Website": "https://you.ctrip.com/sight/qinhuangdao132/145703570.html?scene=online",
    "Address": "秦皇岛市山海关区古城西大街山海关总兵府景区山海镇总兵府内",
    "Phone": null,
    "Latitude": null,
    "Longitude": null,
    "City": "QingHuangDao"
  },
  {
    "Name": "总兵祠",
    "Website": "https://you.ctrip.com/sight/qinhuangdao132/145700236.html?scene=online",
    "Address": "秦皇岛市山海关区古城西大街山海关总兵府景区山海镇总兵府内",
    "Phone": null,
    "Latitude": null,
    "Longitude": null,
    "City": "QingHuangDao"
  },
  {
    "Name": "机略功成",
    "Website": "https://you.ctrip.com/sight/qinhuangdao132/145690544.html?scene=online",
    "Address": "秦皇岛市山海关区古城西大街山海关总兵府景区山海镇总兵府内",
    "Phone": null,
    "Latitude": null,
    "Longitude": null,
    "City": "QingHuangDao"
  },
  {
    "Name": "山海关文体中心",
    "Website": "https://you.ctrip.com/sight/qinhuangdao132/145690542.html?scene=online",
    "Address": "秦皇岛市山海关区澄海大道与龙海大道交叉路口往东约170米",
    "Phone": null,
    "Latitude": null,
    "Longitude": null,
    "City": "QingHuangDao"
  },
  {
    "Name": "奇幻地下溶洞",
    "Website": "https://you.ctrip.com/sight/qinhuangdao132/145680737.html?scene=online",
    "Address": "秦皇岛市山海关区古城西大街山海关总兵府景区龙城帝国广场内",
    "Phone": null,
    "Latitude": null,
    "Longitude": null,
    "City": "QingHuangDao"
  },
  {
    "Name": "长命仙子台",
    "Website": "https://you.ctrip.com/sight/qinhuangdao132/145678753.html?scene=online",
    "Address": "秦皇岛市山海关区古城西大街山海关总兵府景区山海镇总兵府内",
    "Phone": null,
    "Latitude": null,
    "Longitude": null,
    "City": "QingHuangDao"
  },
  {
    "Name": "皮影馆",
    "Website": "https://you.ctrip.com/sight/qinhuangdao132/145677335.html?scene=online",
    "Address": "秦皇岛市山海关区东三条29~31号王家大院内",
    "Phone": null,
    "Latitude": null,
    "Longitude": null,
    "City": "QingHuangDao"
  },
  {
    "Name": "强体台",
    "Website": "https://you.ctrip.com/sight/qinhuangdao132/145671042.html?scene=online",
    "Address": "秦皇岛市山海关区古城西大街山海关总兵府景区山海镇总兵府内",
    "Phone": null,
    "Latitude": null,
    "Longitude": null,
    "City": "QingHuangDao"
  },
  {
    "Name": "吉祥平安钟",
    "Website": "https://you.ctrip.com/sight/qinhuangdao132/145657816.html?scene=online",
    "Address": "秦皇岛市山海关区三道关村附近长寿山景区内",
    "Phone": null,
    "Latitude": null,
    "Longitude": null,
    "City": "QingHuangDao"
  },
  {
    "Name": "愤怒的小鸟",
    "Website": "https://you.ctrip.com/sight/qinhuangdao132/145657803.html?scene=online",
    "Address": "秦皇岛市山海关区龙海大道148号乐岛公园海洋嘉年华内",
    "Phone": null,
    "Latitude": null,
    "Longitude": null,
    "City": "QingHuangDao"
  },
  {
    "Name": "滴水溶洞",
    "Website": "https://you.ctrip.com/sight/qinhuangdao132/145651514.html?scene=online",
    "Address": "秦皇岛市山海关区龙海大道148号乐岛公园戏水乐园内",
    "Phone": null,
    "Latitude": null,
    "Longitude": null,
    "City": "QingHuangDao"
  },
  {
    "Name": "迷你游乐园",
    "Website": "https://you.ctrip.com/sight/qinhuangdao132/145651509.html?scene=online",
    "Address": "秦皇岛市山海关区东水关街23号(近火车站)莲花湖公园内",
    "Phone": null,
    "Latitude": null,
    "Longitude": null,
    "City": "QingHuangDao"
  },
  {
    "Name": "望海观音殿",
    "Website": "https://you.ctrip.com/sight/qinhuangdao132/145651506.html?scene=online",
    "Address": "秦皇岛市山海关区五佛山国际生态旅游度假区角山景区栖贤寺内",
    "Phone": null,
    "Latitude": null,
    "Longitude": null,
    "City": "QingHuangDao"
  },
  {
    "Name": "南翼长城",
    "Website": "https://you.ctrip.com/sight/qinhuangdao132/145648096.html?scene=online",
    "Address": "秦皇岛市山海关区城南5公里处天下第一关景区内",
    "Phone": null,
    "Latitude": null,
    "Longitude": null,
    "City": "QingHuangDao"
  },
  {
    "Name": "洞山剑峰",
    "Website": "https://you.ctrip.com/sight/qinhuangdao132/145648076.html?scene=online",
    "Address": "秦皇岛市山海关区城西北7华里燕塞湖景区内",
    "Phone": null,
    "Latitude": null,
    "Longitude": null,
    "City": "QingHuangDao"
  },
  {
    "Name": "乾隆御碑",
    "Website": "https://you.ctrip.com/sight/qinhuangdao132/145648067.html?scene=online",
    "Address": "秦皇岛市山海关区龙海大道1号老龙头景区内",
    "Phone": null,
    "Latitude": null,
    "Longitude": null,
    "City": "QingHuangDao"
  },
  {
    "Name": "百家姓家训馆",
    "Website": "https://you.ctrip.com/sight/qinhuangdao132/145641745.html?scene=online",
    "Address": "秦皇岛市山海关区东三条29~31号王家大院内",
    "Phone": null,
    "Latitude": null,
    "Longitude": null,
    "City": "QingHuangDao"
  },
  {
    "Name": "古神水井",
    "Website": "https://you.ctrip.com/sight/qinhuangdao132/145631971.html?scene=online",
    "Address": "秦皇岛市山海关区五佛山国际生态旅游度假区角山景区栖贤寺内",
    "Phone": null,
    "Latitude": null,
    "Longitude": null,
    "City": "QingHuangDao"
  },
  {
    "Name": "钟粹阁",
    "Website": "https://you.ctrip.com/sight/qinhuangdao132/145631962.html?scene=online",
    "Address": "秦皇岛市山海关区龙海大道1号山海行宫内",
    "Phone": null,
    "Latitude": null,
    "Longitude": null,
    "City": "QingHuangDao"
  },
  {
    "Name": "兵部分司-书房",
    "Website": "https://you.ctrip.com/sight/qinhuangdao132/145628427.html?scene=online",
    "Address": "秦皇岛市山海关区东大街1号天下第一关景区兵部分司内",
    "Phone": null,
    "Latitude": null,
    "Longitude": null,
    "City": "QingHuangDao"
  },
  {
    "Name": "译字所",
    "Website": "https://you.ctrip.com/sight/qinhuangdao132/145622158.html?scene=online",
    "Address": "秦皇岛市山海关区古城西大街山海关总兵府景区山海镇总兵府内",
    "Phone": null,
    "Latitude": null,
    "Longitude": null,
    "City": "QingHuangDao"
  },
  {
    "Name": "退休职工活动室",
    "Website": "https://you.ctrip.com/sight/qinhuangdao132/145622149.html?scene=online",
    "Address": "秦皇岛市山海关区南苑西路秦皇岛市山海关人民医院",
    "Phone": null,
    "Latitude": null,
    "Longitude": null,
    "City": "QingHuangDao"
  },
  {
    "Name": "卧云桥",
    "Website": "https://you.ctrip.com/sight/qinhuangdao132/145612420.html?scene=online",
    "Address": "秦皇岛市山海关区东水关街23号(近火车站)莲花湖公园内",
    "Phone": null,
    "Latitude": null,
    "Longitude": null,
    "City": "QingHuangDao"
  },
  {
    "Name": "博顺帆船",
    "Website": "https://you.ctrip.com/sight/qinhuangdao132/145602660.html?scene=online",
    "Address": "河北省秦皇岛市山海关区G228(龙海大道)",
    "Phone": null,
    "Latitude": null,
    "Longitude": null,
    "City": "QingHuangDao"
  },
  {
    "Name": "三十六计",
    "Website": "https://you.ctrip.com/sight/qinhuangdao132/145602599.html?scene=online",
    "Address": "秦皇岛市山海关区古城西大街山海关总兵府景区山海镇总兵府内",
    "Phone": null,
    "Latitude": null,
    "Longitude": null,
    "City": "QingHuangDao"
  },
  {
    "Name": "魁星阁",
    "Website": "https://you.ctrip.com/sight/qinhuangdao132/145600563.html?scene=online",
    "Address": "秦皇岛市山海关区五佛山国际生态旅游度假区角山景区栖贤寺内",
    "Phone": null,
    "Latitude": null,
    "Longitude": null,
    "City": "QingHuangDao"
  },
  {
    "Name": "大悲阁",
    "Website": "https://you.ctrip.com/sight/qinhuangdao132/145599119.html?scene=online",
    "Address": "秦皇岛市山海关区古城东北片区大悲院内",
    "Phone": null,
    "Latitude": null,
    "Longitude": null,
    "City": "QingHuangDao"
  },
  {
    "Name": "达摩殿",
    "Website": "https://you.ctrip.com/sight/qinhuangdao132/145592761.html?scene=online",
    "Address": "秦皇岛市山海关区五佛山国际生态旅游度假区角山景区栖贤寺内",
    "Phone": null,
    "Latitude": null,
    "Longitude": null,
    "City": "QingHuangDao"
  },
  {
    "Name": "百二山河",
    "Website": "https://you.ctrip.com/sight/qinhuangdao132/145589366.html?scene=online",
    "Address": "秦皇岛市山海关区三道关村附近长寿山景区内",
    "Phone": null,
    "Latitude": null,
    "Longitude": null,
    "City": "QingHuangDao"
  },
  {
    "Name": "禄饷阁",
    "Website": "https://you.ctrip.com/sight/qinhuangdao132/145589360.html?scene=online",
    "Address": "秦皇岛市山海关区古城西大街山海关总兵府景区山海镇总兵府内",
    "Phone": null,
    "Latitude": null,
    "Longitude": null,
    "City": "QingHuangDao"
  },
  {
    "Name": "聚友网咖(站前路店)",
    "Website": "https://you.ctrip.com/sight/qinhuangdao132/145583034.html?scene=online",
    "Address": "河北省秦皇岛市山海关区站前路48号",
    "Phone": null,
    "Latitude": null,
    "Longitude": null,
    "City": "QingHuangDao"
  },
  {
    "Name": "母女峰",
    "Website": "https://you.ctrip.com/sight/qinhuangdao132/145583031.html?scene=online",
    "Address": "秦皇岛市山海关区城西北7华里燕塞湖景区内",
    "Phone": null,
    "Latitude": null,
    "Longitude": null,
    "City": "QingHuangDao"
  },
  {
    "Name": "利尔春天房车露营地",
    "Website": "https://you.ctrip.com/sight/qinhuangdao132/145583023.html?scene=online",
    "Address": "秦皇岛市山海关区G102角山长城",
    "Phone": null,
    "Latitude": null,
    "Longitude": null,
    "City": "QingHuangDao"
  },
  {
    "Name": "国柱书馆",
    "Website": "https://you.ctrip.com/sight/qinhuangdao132/145583015.html?scene=online",
    "Address": "秦皇岛市山海关区正安街南海花园",
    "Phone": null,
    "Latitude": null,
    "Longitude": null,
    "City": "QingHuangDao"
  },
  {
    "Name": "山海关老龙头景区-法制铁炮",
    "Website": "https://you.ctrip.com/sight/qinhuangdao132/145583011.html?scene=online",
    "Address": "秦皇岛市山海关区龙海大道1号老龙头景区内",
    "Phone": null,
    "Latitude": null,
    "Longitude": null,
    "City": "QingHuangDao"
  },
  {
    "Name": "张仲景石窟",
    "Website": "https://you.ctrip.com/sight/qinhuangdao132/145579512.html?scene=online",
    "Address": "秦皇岛市山海关区三道关村附近长寿山景区内",
    "Phone": null,
    "Latitude": null,
    "Longitude": null,
    "City": "QingHuangDao"
  },
  {
    "Name": "椽房",
    "Website": "https://you.ctrip.com/sight/qinhuangdao132/145573226.html?scene=online",
    "Address": "秦皇岛市山海关区东大街1号天下第一关景区兵部分司内",
    "Phone": null,
    "Latitude": null,
    "Longitude": null,
    "City": "QingHuangDao"
  },
  {
    "Name": "长寿河",
    "Website": "https://you.ctrip.com/sight/qinhuangdao132/145573211.html?scene=online",
    "Address": "秦皇岛市山海关区三道关村附近长寿山景区内",
    "Phone": null,
    "Latitude": null,
    "Longitude": null,
    "City": "QingHuangDao"
  },
  {
    "Name": "戏水乐园",
    "Website": "https://you.ctrip.com/sight/qinhuangdao132/145573209.html?scene=online",
    "Address": "秦皇岛市山海关区龙海大道148号乐岛公园内",
    "Phone": null,
    "Latitude": null,
    "Longitude": null,
    "City": "QingHuangDao"
  },
  {
    "Name": "兰亭书舍山海关研究院",
    "Website": "https://you.ctrip.com/sight/qinhuangdao132/145571716.html?scene=online",
    "Address": "秦皇岛市山海关区东大街山海关风景区天下第一关景区西门西侧约40米",
    "Phone": null,
    "Latitude": null,
    "Longitude": null,
    "City": "QingHuangDao"
  },
  {
    "Name": "石河鏖战",
    "Website": "https://you.ctrip.com/sight/qinhuangdao132/145571152.html?scene=online",
    "Address": "秦皇岛市山海关区西大街秦皇岛廉政文化研究会旁边甲申史鉴馆内",
    "Phone": null,
    "Latitude": null,
    "Longitude": null,
    "City": "QingHuangDao"
  },
  {
    "Name": "浩水烟波蜡像馆",
    "Website": "https://you.ctrip.com/sight/qinhuangdao132/145569720.html?scene=online",
    "Address": "秦皇岛市山海关区南大街山海关古城景区",
    "Phone": null,
    "Latitude": null,
    "Longitude": null,
    "City": "QingHuangDao"
  },
  {
    "Name": "崇文阁",
    "Website": "https://you.ctrip.com/sight/qinhuangdao132/145563448.html?scene=online",
    "Address": "秦皇岛市山海关区古城西大街山海关总兵府景区山海镇总兵府内",
    "Phone": null,
    "Latitude": null,
    "Longitude": null,
    "City": "QingHuangDao"
  },
  {
    "Name": "二堂遗址保护区",
    "Website": "https://you.ctrip.com/sight/qinhuangdao132/145559988.html?scene=online",
    "Address": "秦皇岛市山海关区古城西大街山海关总兵府景区山海镇总兵府内",
    "Phone": null,
    "Latitude": null,
    "Longitude": null,
    "City": "QingHuangDao"
  },
  {
    "Name": "山海关风景区-箭楼",
    "Website": "https://you.ctrip.com/sight/qinhuangdao132/145553677.html?scene=online",
    "Address": "秦皇岛市山海关区古城东大街1号",
    "Phone": null,
    "Latitude": null,
    "Longitude": null,
    "City": "QingHuangDao"
  },
  {
    "Name": "秦皇岛市金峰园景区",
    "Website": "https://you.ctrip.com/sight/qinhuangdao132/145553672.html?scene=online",
    "Address": "河北省秦皇岛市山海关区孟姜镇G102(关城北路)",
    "Phone": null,
    "Latitude": null,
    "Longitude": null,
    "City": "QingHuangDao"
  },
  {
    "Name": "李自成雕像",
    "Website": "https://you.ctrip.com/sight/qinhuangdao132/145553661.html?scene=online",
    "Address": "秦皇岛市山海关区五佛山国际生态旅游度假区角山景区内",
    "Phone": null,
    "Latitude": null,
    "Longitude": null,
    "City": "QingHuangDao"
  },
  {
    "Name": "打沙包",
    "Website": "https://you.ctrip.com/sight/qinhuangdao132/145553656.html?scene=online",
    "Address": "秦皇岛市山海关区龙海大道148号乐岛公园海洋嘉年华内",
    "Phone": null,
    "Latitude": null,
    "Longitude": null,
    "City": "QingHuangDao"
  },
  {
    "Name": "修葺所",
    "Website": "https://you.ctrip.com/sight/qinhuangdao132/145552110.html?scene=online",
    "Address": "秦皇岛市山海关区古城西大街山海关总兵府景区山海镇总兵府内",
    "Phone": null,
    "Latitude": null,
    "Longitude": null,
    "City": "QingHuangDao"
  },
  {
    "Name": "任重道远",
    "Website": "https://you.ctrip.com/sight/qinhuangdao132/145551604.html?scene=online",
    "Address": "秦皇岛市山海关区西大街秦皇岛廉政文化研究会旁边甲申史鉴馆内",
    "Phone": null,
    "Latitude": null,
    "Longitude": null,
    "City": "QingHuangDao"
  },
  {
    "Name": "秦皇岛天健游乐园",
    "Website": "https://you.ctrip.com/sight/qinhuangdao132/145550240.html?scene=online",
    "Address": "河北省秦皇岛市山海关区龙海大道北150米",
    "Phone": null,
    "Latitude": null,
    "Longitude": null,
    "City": "QingHuangDao"
  },
  {
    "Name": "镇东威远",
    "Website": "https://you.ctrip.com/sight/qinhuangdao132/145543873.html?scene=online",
    "Address": "秦皇岛市山海关区古城西大街山海关总兵府景区内",
    "Phone": null,
    "Latitude": null,
    "Longitude": null,
    "City": "QingHuangDao"
  },
  {
    "Name": "华夏飞碟",
    "Website": "https://you.ctrip.com/sight/qinhuangdao132/145541826.html?scene=online",
    "Address": "秦皇岛市山海关区龙海大道148号乐岛公园海洋嘉年华内",
    "Phone": null,
    "Latitude": null,
    "Longitude": null,
    "City": "QingHuangDao"
  },
  {
    "Name": "问到王家",
    "Website": "https://you.ctrip.com/sight/qinhuangdao132/145541825.html?scene=online",
    "Address": "秦皇岛市山海关区东三条29~31号王家大院内",
    "Phone": null,
    "Latitude": null,
    "Longitude": null,
    "City": "QingHuangDao"
  },
  {
    "Name": "空中飞舞",
    "Website": "https://you.ctrip.com/sight/qinhuangdao132/145540425.html?scene=online",
    "Address": "河北省秦皇岛市山海关区石河镇龙海大道148号乐岛公园海洋嘉年华内",
    "Phone": null,
    "Latitude": null,
    "Longitude": null,
    "City": "QingHuangDao"
  },
  {
    "Name": "军粮阁",
    "Website": "https://you.ctrip.com/sight/qinhuangdao132/145540410.html?scene=online",
    "Address": "秦皇岛市山海关区古城西大街山海关总兵府景区山海镇总兵府内",
    "Phone": null,
    "Latitude": null,
    "Longitude": null,
    "City": "QingHuangDao"
  },
  {
    "Name": "迷你穿梭",
    "Website": "https://you.ctrip.com/sight/qinhuangdao132/145533987.html?scene=online",
    "Address": "秦皇岛市山海关区龙海大道148号乐岛公园海洋嘉年华内",
    "Phone": null,
    "Latitude": null,
    "Longitude": null,
    "City": "QingHuangDao"
  },
  {
    "Name": "海盗船",
    "Website": "https://you.ctrip.com/sight/qinhuangdao132/145530548.html?scene=online",
    "Address": "秦皇岛市山海关区龙海大道148号乐岛公园海底总动员内",
    "Phone": null,
    "Latitude": null,
    "Longitude": null,
    "City": "QingHuangDao"
  },
  {
    "Name": "幸运锣鼓",
    "Website": "https://you.ctrip.com/sight/qinhuangdao132/145524222.html?scene=online",
    "Address": "秦皇岛市山海关区古城西大街山海关总兵府景区山海镇总兵府内",
    "Phone": null,
    "Latitude": null,
    "Longitude": null,
    "City": "QingHuangDao"
  },
  {
    "Name": "山海关老龙头景区-靖卤台",
    "Website": "https://you.ctrip.com/sight/qinhuangdao132/145524221.html?scene=online",
    "Address": "秦皇岛市山海关区龙海大道1号老龙头景区内",
    "Phone": null,
    "Latitude": null,
    "Longitude": null,
    "City": "QingHuangDao"
  },
  {
    "Name": "炮火连天",
    "Website": "https://you.ctrip.com/sight/qinhuangdao132/145524219.html?scene=online",
    "Address": "秦皇岛市山海关区龙海大道148号乐岛公园海洋嘉年华内",
    "Phone": null,
    "Latitude": null,
    "Longitude": null,
    "City": "QingHuangDao"
  },
  {
    "Name": "角山长城-纪念林",
    "Website": "https://you.ctrip.com/sight/qinhuangdao132/145514447.html?scene=online",
    "Address": "秦皇岛市山海关区角山路角山长城内",
    "Phone": null,
    "Latitude": null,
    "Longitude": null,
    "City": "QingHuangDao"
  },
  {
    "Name": "王家大院-客厅",
    "Website": "https://you.ctrip.com/sight/qinhuangdao132/145514441.html?scene=online",
    "Address": "秦皇岛市山海关区东三条29~31号王家大院内",
    "Phone": null,
    "Latitude": null,
    "Longitude": null,
    "City": "QingHuangDao"
  },
  {
    "Name": "漂移碰碰车",
    "Website": "https://you.ctrip.com/sight/qinhuangdao132/145512450.html?scene=online",
    "Address": "秦皇岛市山海关区龙海大道1号老龙头景区内",
    "Phone": null,
    "Latitude": null,
    "Longitude": null,
    "City": "QingHuangDao"
  },
  {
    "Name": "山海关老龙头景区-一勺之多",
    "Website": "https://you.ctrip.com/sight/qinhuangdao132/145510992.html?scene=online",
    "Address": "秦皇岛市山海关区龙海大道1号老龙头景区内",
    "Phone": null,
    "Latitude": null,
    "Longitude": null,
    "City": "QingHuangDao"
  },
  {
    "Name": "石河景观带",
    "Website": "https://you.ctrip.com/sight/qinhuangdao132/145504680.html?scene=online",
    "Address": "秦皇岛市山海关区石河路左岸香颂南侧约70米",
    "Phone": null,
    "Latitude": null,
    "Longitude": null,
    "City": "QingHuangDao"
  },
  {
    "Name": "子午洞天",
    "Website": "https://you.ctrip.com/sight/qinhuangdao132/145504611.html?scene=online",
    "Address": "秦皇岛市山海关区三道关村附近长寿山景区内",
    "Phone": null,
    "Latitude": null,
    "Longitude": null,
    "City": "QingHuangDao"
  },
  {
    "Name": "兵器陈列室",
    "Website": "https://you.ctrip.com/sight/qinhuangdao132/145504608.html?scene=online",
    "Address": "秦皇岛市山海关区龙海大道1号老龙头景区龙武营内",
    "Phone": null,
    "Latitude": null,
    "Longitude": null,
    "City": "QingHuangDao"
  },
  {
    "Name": "山海关景区-显功祠",
    "Website": "https://you.ctrip.com/sight/qinhuangdao132/145494841.html?scene=online",
    "Address": "秦皇岛市山海关区龙海大道1号老龙头景区内",
    "Phone": null,
    "Latitude": null,
    "Longitude": null,
    "City": "QingHuangDao"
  },
  {
    "Name": "宽滑道",
    "Website": "https://you.ctrip.com/sight/qinhuangdao132/145491310.html?scene=online",
    "Address": "秦皇岛市山海关区龙海大道148号乐岛公园戏水乐园内",
    "Phone": null,
    "Latitude": null,
    "Longitude": null,
    "City": "QingHuangDao"
  },
  {
    "Name": "山海关长城书法馆",
    "Website": "https://you.ctrip.com/sight/qinhuangdao132/145484963.html?scene=online",
    "Address": "河北省秦皇岛市山海关区古城街道东大街3-9",
    "Phone": null,
    "Latitude": null,
    "Longitude": null,
    "City": "QingHuangDao"
  },
  {
    "Name": "二十四间房",
    "Website": "https://you.ctrip.com/sight/qinhuangdao132/145484959.html?scene=online",
    "Address": "秦皇岛市山海关区三道关村附近长寿山景区内",
    "Phone": null,
    "Latitude": null,
    "Longitude": null,
    "City": "QingHuangDao"
  },
  {
    "Name": "天后宫",
    "Website": "https://you.ctrip.com/sight/qinhuangdao132/145484954.html?scene=online",
    "Address": "秦皇岛市山海关区龙海大道1号老龙头景区海神庙内",
    "Phone": null,
    "Latitude": null,
    "Longitude": null,
    "City": "QingHuangDao"
  },
  {
    "Name": "滚球组合",
    "Website": "https://you.ctrip.com/sight/qinhuangdao132/145484951.html?scene=online",
    "Address": "秦皇岛市山海关区龙海大道148号乐岛公园海洋嘉年华内",
    "Phone": null,
    "Latitude": null,
    "Longitude": null,
    "City": "QingHuangDao"
  },
  {
    "Name": "私塾馆",
    "Website": "https://you.ctrip.com/sight/qinhuangdao132/145482673.html?scene=online",
    "Address": "秦皇岛市山海关区东三条29~31号王家大院内",
    "Phone": null,
    "Latitude": null,
    "Longitude": null,
    "City": "QingHuangDao"
  },
  {
    "Name": "居安思危",
    "Website": "https://you.ctrip.com/sight/qinhuangdao132/145481153.html?scene=online",
    "Address": "秦皇岛市山海关区西大街秦皇岛廉政文化研究会旁边甲申史鉴馆内",
    "Phone": null,
    "Latitude": null,
    "Longitude": null,
    "City": "QingHuangDao"
  },
  {
    "Name": "望亰迎恩",
    "Website": "https://you.ctrip.com/sight/qinhuangdao132/145474754.html?scene=online",
    "Address": "秦皇岛市山海关区古城西大街山海关总兵府景区山海镇总兵府内",
    "Phone": null,
    "Latitude": null,
    "Longitude": null,
    "City": "QingHuangDao"
  },
  {
    "Name": "御佛堂",
    "Website": "https://you.ctrip.com/sight/qinhuangdao132/145471259.html?scene=online",
    "Address": "秦皇岛市山海关区老龙头奇观园购物广场旁",
    "Phone": null,
    "Latitude": null,
    "Longitude": null,
    "City": "QingHuangDao"
  },
  {
    "Name": "核桃楸",
    "Website": "https://you.ctrip.com/sight/qinhuangdao132/145471257.html?scene=online",
    "Address": "秦皇岛市山海关区三道关村附近长寿山景区内",
    "Phone": null,
    "Latitude": null,
    "Longitude": null,
    "City": "QingHuangDao"
  },
  {
    "Name": "道光御制卧碑",
    "Website": "https://you.ctrip.com/sight/qinhuangdao132/145464942.html?scene=online",
    "Address": "秦皇岛市山海关区龙海大道1号老龙头景区内",
    "Phone": null,
    "Latitude": null,
    "Longitude": null,
    "City": "QingHuangDao"
  },
  {
    "Name": "山海关古城景区-珍宝隆",
    "Website": "https://you.ctrip.com/sight/qinhuangdao132/145461508.html?scene=online",
    "Address": "河北省秦皇岛市山海关区古城街道南大街6-3",
    "Phone": null,
    "Latitude": null,
    "Longitude": null,
    "City": "QingHuangDao"
  },
  {
    "Name": "普贤殿",
    "Website": "https://you.ctrip.com/sight/qinhuangdao132/145455149.html?scene=online",
    "Address": "秦皇岛市山海关区古城东北片区大悲院内",
    "Phone": null,
    "Latitude": null,
    "Longitude": null,
    "City": "QingHuangDao"
  },
  {
    "Name": "龙王庙",
    "Website": "https://you.ctrip.com/sight/qinhuangdao132/145455122.html?scene=online",
    "Address": "秦皇岛市山海关区龙海大道1号老龙头景区内",
    "Phone": null,
    "Latitude": null,
    "Longitude": null,
    "City": "QingHuangDao"
  },
  {
    "Name": "金蟾戏水",
    "Website": "https://you.ctrip.com/sight/qinhuangdao132/145455121.html?scene=online",
    "Address": "秦皇岛市山海关区小陈庄北燕塞湖景区内",
    "Phone": null,
    "Latitude": null,
    "Longitude": null,
    "City": "QingHuangDao"
  },
  {
    "Name": "海底总动员",
    "Website": "https://you.ctrip.com/sight/qinhuangdao132/145455120.html?scene=online",
    "Address": "秦皇岛市山海关区龙海大道148号乐岛公园内",
    "Phone": null,
    "Latitude": null,
    "Longitude": null,
    "City": "QingHuangDao"
  },
  {
    "Name": "鸟艺表演场",
    "Website": "https://you.ctrip.com/sight/qinhuangdao132/145445370.html?scene=online",
    "Address": "秦皇岛市山海关区城西北7华里燕塞湖景区鸟语林内",
    "Phone": null,
    "Latitude": null,
    "Longitude": null,
    "City": "QingHuangDao"
  },
  {
    "Name": "鑫耀台球俱乐部",
    "Website": "https://you.ctrip.com/sight/qinhuangdao132/145445296.html?scene=online",
    "Address": "河北省秦皇岛市山海关区南关街道新华商城2号楼兴华商城D座4楼(万孚购物广场对面)",
    "Phone": null,
    "Latitude": null,
    "Longitude": null,
    "City": "QingHuangDao"
  },
  {
    "Name": "水上双人滚桶",
    "Website": "https://you.ctrip.com/sight/qinhuangdao132/145445285.html?scene=online",
    "Address": "秦皇岛市山海关区龙海大道148号乐岛公园内",
    "Phone": null,
    "Latitude": null,
    "Longitude": null,
    "City": "QingHuangDao"
  },
  {
    "Name": "观海亭",
    "Website": "https://you.ctrip.com/sight/qinhuangdao132/145435487.html?scene=online",
    "Address": "秦皇岛市山海关区龙海大道1号老龙头景区海神庙内",
    "Phone": null,
    "Latitude": null,
    "Longitude": null,
    "City": "QingHuangDao"
  },
  {
    "Name": "子母龟石地质地貌景观",
    "Website": "https://you.ctrip.com/sight/qinhuangdao132/145425646.html?scene=online",
    "Address": "秦皇岛市山海关区三道关村附近长寿山景区内",
    "Phone": null,
    "Latitude": null,
    "Longitude": null,
    "City": "QingHuangDao"
  },
  {
    "Name": "荟聚武道跆拳道馆",
    "Website": "https://you.ctrip.com/sight/qinhuangdao132/145425639.html?scene=online",
    "Address": "河北省秦皇岛市山海关区江苏南路家惠超市3楼",
    "Phone": null,
    "Latitude": null,
    "Longitude": null,
    "City": "QingHuangDao"
  },
  {
    "Name": "乾清阁",
    "Website": "https://you.ctrip.com/sight/qinhuangdao132/145425633.html?scene=online",
    "Address": "秦皇岛市山海关区龙海大道1号山海行宫内",
    "Phone": null,
    "Latitude": null,
    "Longitude": null,
    "City": "QingHuangDao"
  },
  {
    "Name": "山海关古城景区汉珍斋",
    "Website": "https://you.ctrip.com/sight/qinhuangdao132/145413828.html?scene=online",
    "Address": "河北省秦皇岛市山海关区东大街12号",
    "Phone": null,
    "Latitude": null,
    "Longitude": null,
    "City": "QingHuangDao"
  },
  {
    "Name": "兵械阁",
    "Website": "https://you.ctrip.com/sight/qinhuangdao132/145412423.html?scene=online",
    "Address": "秦皇岛市山海关区古城西大街山海关总兵府景区山海镇总兵府内",
    "Phone": null,
    "Latitude": null,
    "Longitude": null,
    "City": "QingHuangDao"
  },
  {
    "Name": "大雄宝殿",
    "Website": "https://you.ctrip.com/sight/qinhuangdao132/145405225.html?scene=online",
    "Address": "秦皇岛市山海关区古城东北片区大悲院内",
    "Phone": null,
    "Latitude": null,
    "Longitude": null,
    "City": "QingHuangDao"
  },
  {
    "Name": "山海关老龙头景区-明代战船",
    "Website": "https://you.ctrip.com/sight/qinhuangdao132/145403118.html?scene=online",
    "Address": "秦皇岛市山海关区龙海大道1号老龙头景区龙武营内",
    "Phone": null,
    "Latitude": null,
    "Longitude": null,
    "City": "QingHuangDao"
  },
  {
    "Name": "老龙头石拱桥东北",
    "Website": "https://you.ctrip.com/sight/qinhuangdao132/145401654.html?scene=online",
    "Address": "河北省秦皇岛市山海关区第一关镇海口道",
    "Phone": null,
    "Latitude": null,
    "Longitude": null,
    "City": "QingHuangDao"
  },
  {
    "Name": "渝关风范",
    "Website": "https://you.ctrip.com/sight/qinhuangdao132/145395308.html?scene=online",
    "Address": "秦皇岛市山海关区五佛山国际生态旅游度假区角山景区栖贤寺内",
    "Phone": null,
    "Latitude": null,
    "Longitude": null,
    "City": "QingHuangDao"
  },
  {
    "Name": "开泰阁",
    "Website": "https://you.ctrip.com/sight/qinhuangdao132/145395287.html?scene=online",
    "Address": "秦皇岛市山海关区古城西大街山海关总兵府景区十二生肖太岁神院内",
    "Phone": null,
    "Latitude": null,
    "Longitude": null,
    "City": "QingHuangDao"
  },
  {
    "Name": "海洋嘉年华-冲浪",
    "Website": "https://you.ctrip.com/sight/qinhuangdao132/145395285.html?scene=online",
    "Address": "秦皇岛市山海关区龙海大道148号乐岛公园海洋嘉年华内",
    "Phone": null,
    "Latitude": null,
    "Longitude": null,
    "City": "QingHuangDao"
  },
  {
    "Name": "马厩",
    "Website": "https://you.ctrip.com/sight/qinhuangdao132/145395270.html?scene=online",
    "Address": "秦皇岛市山海关区龙海大道1号老龙头景区龙武营内",
    "Phone": null,
    "Latitude": null,
    "Longitude": null,
    "City": "QingHuangDao"
  },
  {
    "Name": "欢乐飞椅",
    "Website": "https://you.ctrip.com/sight/qinhuangdao132/145393273.html?scene=online",
    "Address": "秦皇岛市山海关区龙海大道148号乐岛公园海洋嘉年华内",
    "Phone": null,
    "Latitude": null,
    "Longitude": null,
    "City": "QingHuangDao"
  },
  {
    "Name": "天外飞来",
    "Website": "https://you.ctrip.com/sight/qinhuangdao132/145391861.html?scene=online",
    "Address": "秦皇岛市山海关区三道关村附近长寿山景区内",
    "Phone": null,
    "Latitude": null,
    "Longitude": null,
    "City": "QingHuangDao"
  },
  {
    "Name": "组合滑道",
    "Website": "https://you.ctrip.com/sight/qinhuangdao132/145391837.html?scene=online",
    "Address": "秦皇岛市山海关区龙海大道148号乐岛公园戏水乐园内",
    "Phone": null,
    "Latitude": null,
    "Longitude": null,
    "City": "QingHuangDao"
  },
  {
    "Name": "鹿园",
    "Website": "https://you.ctrip.com/sight/qinhuangdao132/145385480.html?scene=online",
    "Address": "秦皇岛市山海关区燕塞湖路松鼠园内",
    "Phone": null,
    "Latitude": null,
    "Longitude": null,
    "City": "QingHuangDao"
  },
  {
    "Name": "镇远镖局-议事厅",
    "Website": "https://you.ctrip.com/sight/qinhuangdao132/145385479.html?scene=online",
    "Address": "秦皇岛市山海关区吉城西大街14号镇远镖局内",
    "Phone": null,
    "Latitude": null,
    "Longitude": null,
    "City": "QingHuangDao"
  },
  {
    "Name": "宇枫乒乓球俱乐部",
    "Website": "https://you.ctrip.com/sight/qinhuangdao132/146065321.html?scene=online",
    "Address": "河北省秦皇岛市山海关区秦山路9号",
    "Phone": null,
    "Latitude": null,
    "Longitude": null,
    "City": "QingHuangDao"
  },
  {
    "Name": "海之鑫恒温游泳中心(山海关店)",
    "Website": "https://you.ctrip.com/sight/qinhuangdao132/146135088.html?scene=online",
    "Address": "秦皇岛市山海关区平安里街平安东里",
    "Phone": null,
    "Latitude": null,
    "Longitude": null,
    "City": "QingHuangDao"
  },
  {
    "Name": "生肖墙",
    "Website": "https://you.ctrip.com/sight/qinhuangdao132/148619023.html?scene=online",
    "Address": "秦皇岛市山海关区古城西大街山海关总兵府景区十二生肖太岁神院内",
    "Phone": null,
    "Latitude": null,
    "Longitude": null,
    "City": "QingHuangDao"
  },
  {
    "Name": "悦峰房车营地",
    "Website": "https://you.ctrip.com/sight/qinhuangdao132/148662103.html?scene=online",
    "Address": "河北省秦皇岛市山海关区关城东路38号",
    "Phone": null,
    "Latitude": null,
    "Longitude": null,
    "City": "QingHuangDao"
  },
  {
    "Name": "北戴河海边轰趴别墅(海口道分店)",
    "Website": "https://you.ctrip.com/sight/qinhuangdao132/148871544.html?scene=online",
    "Address": "秦皇岛市山海关区海口道假日蓝湾南侧约50米",
    "Phone": null,
    "Latitude": null,
    "Longitude": null,
    "City": "QingHuangDao"
  },
  {
    "Name": "77号台球研究所",
    "Website": "https://you.ctrip.com/sight/qinhuangdao132/149547529.html?scene=online",
    "Address": "河北省秦皇岛市山海关区兴华商城2A-3-26(三楼)",
    "Phone": null,
    "Latitude": null,
    "Longitude": null,
    "City": "QingHuangDao"
  },
  {
    "Name": "忠之武道馆",
    "Website": "https://you.ctrip.com/sight/qinhuangdao132/149547269.html?scene=online",
    "Address": "河北省秦皇岛市山海关区樱园10号楼底商102号正西方向150米",
    "Phone": null,
    "Latitude": null,
    "Longitude": null,
    "City": "QingHuangDao"
  },
  {
    "Name": "佟杏林养生馆",
    "Website": "https://you.ctrip.com/sight/qinhuangdao132/149547236.html?scene=online",
    "Address": "秦皇岛市山海关区亚龙湾小区",
    "Phone": null,
    "Latitude": null,
    "Longitude": null,
    "City": "QingHuangDao"
  },
  {
    "Name": "山海关雨涵大樱桃种植园",
    "Website": "https://you.ctrip.com/sight/qinhuangdao132/149377988.html?scene=online",
    "Address": "河北省秦皇岛市山海关区安民寨浴池北行100米右转直行200米",
    "Phone": null,
    "Latitude": null,
    "Longitude": null,
    "City": "QingHuangDao"
  },
  {
    "Name": "秦皇岛韶怡轩康养中心",
    "Website": "https://you.ctrip.com/sight/qinhuangdao132/149368271.html?scene=online",
    "Address": "秦皇岛市山海关区海口道山海壹号东侧约200米",
    "Phone": null,
    "Latitude": null,
    "Longitude": null,
    "City": "QingHuangDao"
  },
  {
    "Name": "俪甲手足护理",
    "Website": "https://you.ctrip.com/sight/qinhuangdao132/149352831.html?scene=online",
    "Address": "秦皇岛市山海关区",
    "Phone": null,
    "Latitude": null,
    "Longitude": null,
    "City": "QingHuangDao"
  },
  {
    "Name": "嘉木红樱桃",
    "Website": "https://you.ctrip.com/sight/qinhuangdao132/149352812.html?scene=online",
    "Address": "河北省秦皇岛市山海关区猛姜镇后棉花庄",
    "Phone": null,
    "Latitude": null,
    "Longitude": null,
    "City": "QingHuangDao"
  },
  {
    "Name": "山海关万濠娱乐",
    "Website": "https://you.ctrip.com/sight/qinhuangdao132/149343416.html?scene=online",
    "Address": "河北省秦皇岛市山海关区上海道77号",
    "Phone": null,
    "Latitude": null,
    "Longitude": null,
    "City": "QingHuangDao"
  },
  {
    "Name": "乔氏台球文化产业园",
    "Website": "https://you.ctrip.com/sight/qinhuangdao132/149265829.html?scene=online",
    "Address": "河北省秦皇岛市山海关区燕塞湖路1号",
    "Phone": null,
    "Latitude": null,
    "Longitude": null,
    "City": "QingHuangDao"
  },
  {
    "Name": "贞女祠",
    "Website": "https://you.ctrip.com/sight/qinhuangdao132/148871543.html?scene=online",
    "Address": "秦皇岛市山海关区城东约6公里的望夫石村后山岗上孟姜女庙景区内",
    "Phone": null,
    "Latitude": null,
    "Longitude": null,
    "City": "QingHuangDao"
  },
  {
    "Name": "少林禅武堂(二分店)",
    "Website": "https://you.ctrip.com/sight/qinhuangdao132/148862301.html?scene=online",
    "Address": "秦皇岛市山海关区教军场路天成宾馆(秦皇岛山海关店)",
    "Phone": null,
    "Latitude": null,
    "Longitude": null,
    "City": "QingHuangDao"
  },
  {
    "Name": "108级石阶",
    "Website": "https://you.ctrip.com/sight/qinhuangdao132/148862289.html?scene=online",
    "Address": "秦皇岛市山海关区城东约6公里的望夫石村后山岗上孟姜女庙景区内",
    "Phone": null,
    "Latitude": null,
    "Longitude": null,
    "City": "QingHuangDao"
  },
  {
    "Name": "尚水洗浴(山海关医院店)",
    "Website": "https://you.ctrip.com/sight/qinhuangdao132/148777212.html?scene=online",
    "Address": "关城南路与南苑西路交叉口西240米",
    "Phone": null,
    "Latitude": null,
    "Longitude": null,
    "City": "QingHuangDao"
  },
  {
    "Name": "山海关区基督教福音堂管理委员会",
    "Website": "https://you.ctrip.com/sight/qinhuangdao132/148777208.html?scene=online",
    "Address": "河北省秦皇岛市山海关区东大街1号山海关-天下第一关景区(西南角)",
    "Phone": null,
    "Latitude": null,
    "Longitude": null,
    "City": "QingHuangDao"
  },
  {
    "Name": "子鼠丑牛太岁殿",
    "Website": "https://you.ctrip.com/sight/qinhuangdao132/148758191.html?scene=online",
    "Address": "秦皇岛市山海关区古城西大街山海关总兵府景区十二生肖太岁神院内",
    "Phone": null,
    "Latitude": null,
    "Longitude": null,
    "City": "QingHuangDao"
  },
  {
    "Name": "炮弹飞车",
    "Website": "https://you.ctrip.com/sight/qinhuangdao132/148748655.html?scene=online",
    "Address": "秦皇岛市山海关区龙海大道148号乐岛公园海洋嘉年华内",
    "Phone": null,
    "Latitude": null,
    "Longitude": null,
    "City": "QingHuangDao"
  },
  {
    "Name": "华婴阳光孕婴童用品(山海关天大店)",
    "Website": "https://you.ctrip.com/sight/qinhuangdao132/148710431.html?scene=online",
    "Address": "关城南路28号(人民医院正门斜对面)",
    "Phone": null,
    "Latitude": null,
    "Longitude": null,
    "City": "QingHuangDao"
  },
  {
    "Name": "邓小平题词碑",
    "Website": "https://you.ctrip.com/sight/qinhuangdao132/148691043.html?scene=online",
    "Address": "秦皇岛市山海关区龙海大道1号老龙头景区内",
    "Phone": null,
    "Latitude": null,
    "Longitude": null,
    "City": "QingHuangDao"
  },
  {
    "Name": "金星水汇",
    "Website": "https://you.ctrip.com/sight/qinhuangdao132/148691035.html?scene=online",
    "Address": "秦皇岛市山海关区关城南路爱朴儿幼儿园东南侧",
    "Phone": null,
    "Latitude": null,
    "Longitude": null,
    "City": "QingHuangDao"
  },
  {
    "Name": "台球俱乐部",
    "Website": "https://you.ctrip.com/sight/qinhuangdao132/148686890.html?scene=online",
    "Address": "河北省秦皇岛市山海关区南园大街南园小学北侧约40米",
    "Phone": null,
    "Latitude": null,
    "Longitude": null,
    "City": "QingHuangDao"
  },
  {
    "Name": "安奉阁",
    "Website": "https://you.ctrip.com/sight/qinhuangdao132/148681445.html?scene=online",
    "Address": "秦皇岛市山海关区古城西大街山海关总兵府景区十二生肖太岁神院内",
    "Phone": null,
    "Latitude": null,
    "Longitude": null,
    "City": "QingHuangDao"
  },
  {
    "Name": "因缘廊",
    "Website": "https://you.ctrip.com/sight/qinhuangdao132/148677179.html?scene=online",
    "Address": "秦皇岛市山海关区古城西大街山海关总兵府景区十二生肖太岁神院内",
    "Phone": null,
    "Latitude": null,
    "Longitude": null,
    "City": "QingHuangDao"
  },
  {
    "Name": "韩都汗蒸养生会馆(老龙头路店)",
    "Website": "https://you.ctrip.com/sight/qinhuangdao132/148671780.html?scene=online",
    "Address": "河北省秦皇岛市山海关区南海西路4号",
    "Phone": null,
    "Latitude": null,
    "Longitude": null,
    "City": "QingHuangDao"
  },
  {
    "Name": "腰铺九号敌台",
    "Website": "https://you.ctrip.com/sight/qinhuangdao132/148671752.html?scene=online",
    "Address": "秦皇岛市山海关区角山路",
    "Phone": null,
    "Latitude": null,
    "Longitude": null,
    "City": "QingHuangDao"
  },
  {
    "Name": "六翼篮羽俱乐部",
    "Website": "https://you.ctrip.com/sight/qinhuangdao132/148662118.html?scene=online",
    "Address": "秦皇岛市山海关区船厂路山船幼儿园西门东南侧约100米",
    "Phone": null,
    "Latitude": null,
    "Longitude": null,
    "City": "QingHuangDao"
  },
  {
    "Name": "云水禅心",
    "Website": "https://you.ctrip.com/sight/qinhuangdao132/148652452.html?scene=online",
    "Address": "河北省秦皇岛市山海关区",
    "Phone": null,
    "Latitude": null,
    "Longitude": null,
    "City": "QingHuangDao"
  },
  {
    "Name": "忠义武术馆",
    "Website": "https://you.ctrip.com/sight/qinhuangdao132/148650477.html?scene=online",
    "Address": "秦皇岛市山海关区天元亨路兴华商城",
    "Phone": null,
    "Latitude": null,
    "Longitude": null,
    "City": "QingHuangDao"
  },
  {
    "Name": "利刃武术搏击俱乐部(兴华商城店)",
    "Website": "https://you.ctrip.com/sight/qinhuangdao132/148649729.html?scene=online",
    "Address": "秦皇岛市山海关区天元亨路秦皇岛永兴快捷宾馆",
    "Phone": null,
    "Latitude": null,
    "Longitude": null,
    "City": "QingHuangDao"
  },
  {
    "Name": "义枪",
    "Website": "https://you.ctrip.com/sight/qinhuangdao132/148642683.html?scene=online",
    "Address": "秦皇岛市山海关区古城西大街山海关总兵府景区山海镇总兵府内",
    "Phone": null,
    "Latitude": null,
    "Longitude": null,
    "City": "QingHuangDao"
  },
  {
    "Name": "弓弩射击场",
    "Website": "https://you.ctrip.com/sight/qinhuangdao132/148640019.html?scene=online",
    "Address": "秦皇岛市山海关区东大街1号天下第一关景区内",
    "Phone": null,
    "Latitude": null,
    "Longitude": null,
    "City": "QingHuangDao"
  },
  {
    "Name": "陈圆圆房",
    "Website": "https://you.ctrip.com/sight/qinhuangdao132/148638434.html?scene=online",
    "Address": "秦皇岛市山海关区东三条29~31号王家大院内",
    "Phone": null,
    "Latitude": null,
    "Longitude": null,
    "City": "QingHuangDao"
  },
  {
    "Name": "龙华寺",
    "Website": "https://you.ctrip.com/sight/qinhuangdao132/148633041.html?scene=online",
    "Address": "秦皇岛市山海关区长寿山路孟姜镇人民政府西侧约190米",
    "Phone": null,
    "Latitude": null,
    "Longitude": null,
    "City": "QingHuangDao"
  },
  {
    "Name": "博茂台球",
    "Website": "https://you.ctrip.com/sight/qinhuangdao132/148633030.html?scene=online",
    "Address": "河北省秦皇岛市山海关区金江家园一号门市",
    "Phone": null,
    "Latitude": null,
    "Longitude": null,
    "City": "QingHuangDao"
  },
  {
    "Name": "寅虎亥猪太岁殿",
    "Website": "https://you.ctrip.com/sight/qinhuangdao132/148623332.html?scene=online",
    "Address": "秦皇岛市山海关区古城西大街山海关总兵府景区十二生肖太岁神院内",
    "Phone": null,
    "Latitude": null,
    "Longitude": null,
    "City": "QingHuangDao"
  },
  {
    "Name": "天一钓场",
    "Website": "https://you.ctrip.com/sight/qinhuangdao132/148613549.html?scene=online",
    "Address": "河北省秦皇岛市山海关区石河镇",
    "Phone": null,
    "Latitude": null,
    "Longitude": null,
    "City": "QingHuangDao"
  },
  {
    "Name": "阎家岭水库",
    "Website": "https://you.ctrip.com/sight/qinhuangdao132/148603747.html?scene=online",
    "Address": "秦皇岛市山海关区",
    "Phone": null,
    "Latitude": null,
    "Longitude": null,
    "City": "QingHuangDao"
  },
  {
    "Name": "盛泉浴池(角山路店)",
    "Website": "https://you.ctrip.com/sight/qinhuangdao132/148603729.html?scene=online",
    "Address": "河北省秦皇岛市山海关区角山路1号",
    "Phone": null,
    "Latitude": null,
    "Longitude": null,
    "City": "QingHuangDao"
  },
  {
    "Name": "华婴阳光孕婴童用品(NO.31山海关天府店)",
    "Website": "https://you.ctrip.com/sight/qinhuangdao132/148593944.html?scene=online",
    "Address": "天元亨3-17号",
    "Phone": null,
    "Latitude": null,
    "Longitude": null,
    "City": "QingHuangDao"
  },
  {
    "Name": "韩都汗蒸养生会馆(大龙道小区店)",
    "Website": "https://you.ctrip.com/sight/qinhuangdao132/148584136.html?scene=online",
    "Address": "秦皇岛市山海关区顺达街大龙道小区",
    "Phone": null,
    "Latitude": null,
    "Longitude": null,
    "City": "QingHuangDao"
  },
  {
    "Name": "八卦阵",
    "Website": "https://you.ctrip.com/sight/qinhuangdao132/148584118.html?scene=online",
    "Address": "秦皇岛市山海关区龙海大道1号老龙头景区内",
    "Phone": null,
    "Latitude": null,
    "Longitude": null,
    "City": "QingHuangDao"
  },
  {
    "Name": "土地庙",
    "Website": "https://you.ctrip.com/sight/qinhuangdao132/148570017.html?scene=online",
    "Address": "秦皇岛市山海关区古城西大街山海关总兵府景区十二生肖太岁神院内",
    "Phone": null,
    "Latitude": null,
    "Longitude": null,
    "City": "QingHuangDao"
  },
  {
    "Name": "路南街道党史纪念馆",
    "Website": "https://you.ctrip.com/sight/qinhuangdao132/148564406.html?scene=online",
    "Address": "河北省秦皇岛市山海关区石河旺角一号楼秦皇岛市山海关区路南街道办事处1层",
    "Phone": null,
    "Latitude": null,
    "Longitude": null,
    "City": "QingHuangDao"
  },
  {
    "Name": "忠刀",
    "Website": "https://you.ctrip.com/sight/qinhuangdao132/148550280.html?scene=online",
    "Address": "秦皇岛市山海关区古城西大街山海关总兵府景区山海镇总兵府内",
    "Phone": null,
    "Latitude": null,
    "Longitude": null,
    "City": "QingHuangDao"
  },
  {
    "Name": "离城半日森林营地",
    "Website": "https://you.ctrip.com/sight/qinhuangdao132/148534734.html?scene=online",
    "Address": "河北省秦皇岛市山海关区G228(龙海大道)",
    "Phone": null,
    "Latitude": null,
    "Longitude": null,
    "City": "QingHuangDao"
  },
  {
    "Name": "戚继光将台",
    "Website": "https://you.ctrip.com/sight/qinhuangdao132/148534672.html?scene=online",
    "Address": "秦皇岛市山海关区老龙头路1号山海关老龙头景区内",
    "Phone": null,
    "Latitude": null,
    "Longitude": null,
    "City": "QingHuangDao"
  },
  {
    "Name": "氿龙农场跑马场",
    "Website": "https://you.ctrip.com/sight/qinhuangdao132/146164978.html?scene=online",
    "Address": "河北省秦皇岛市山海关区102国道冀东花卉市场东侧",
    "Phone": null,
    "Latitude": null,
    "Longitude": null,
    "City": "QingHuangDao"
  },
  {
    "Name": "山海优冠台球器材",
    "Website": "https://you.ctrip.com/sight/qinhuangdao132/146145080.html?scene=online",
    "Address": "河北省秦皇岛市山海关区燕塞湖东路166号",
    "Phone": null,
    "Latitude": null,
    "Longitude": null,
    "City": "QingHuangDao"
  },
  {
    "Name": "义道馆",
    "Website": "https://you.ctrip.com/sight/qinhuangdao132/146145003.html?scene=online",
    "Address": "秦皇岛市山海关区石河路山海关石桥农贸批发市场",
    "Phone": null,
    "Latitude": null,
    "Longitude": null,
    "City": "QingHuangDao"
  },
  {
    "Name": "儿童游乐园",
    "Website": "https://you.ctrip.com/sight/qinhuangdao132/146145002.html?scene=online",
    "Address": "秦皇岛市山海关区东水关街23号(近火车站)莲花湖公园内",
    "Phone": null,
    "Latitude": null,
    "Longitude": null,
    "City": "QingHuangDao"
  },
  {
    "Name": "电玩台球",
    "Website": "https://you.ctrip.com/sight/qinhuangdao132/146135099.html?scene=online",
    "Address": "秦皇岛市山海关区江苏南路碧海花园东侧约30米",
    "Phone": null,
    "Latitude": null,
    "Longitude": null,
    "City": "QingHuangDao"
  },
  {
    "Name": "天福浴池",
    "Website": "https://you.ctrip.com/sight/qinhuangdao132/146125120.html?scene=online",
    "Address": "河北省秦皇岛市山海关区关城南路139号",
    "Phone": null,
    "Latitude": null,
    "Longitude": null,
    "City": "QingHuangDao"
  },
  {
    "Name": "少北武术馆",
    "Website": "https://you.ctrip.com/sight/qinhuangdao132/146125117.html?scene=online",
    "Address": "秦皇岛市山海关区小西关大街山海国际",
    "Phone": null,
    "Latitude": null,
    "Longitude": null,
    "City": "QingHuangDao"
  },
  {
    "Name": "星阳运动俱乐部",
    "Website": "https://you.ctrip.com/sight/qinhuangdao132/146114838.html?scene=online",
    "Address": "河北秦皇岛市山海关区秦山东路9号",
    "Phone": null,
    "Latitude": null,
    "Longitude": null,
    "City": "QingHuangDao"
  },
  {
    "Name": "今晚台球俱乐部",
    "Website": "https://you.ctrip.com/sight/qinhuangdao132/146110697.html?scene=online",
    "Address": "秦皇岛市山海关区石河路左岸香颂西南侧约30米",
    "Phone": null,
    "Latitude": null,
    "Longitude": null,
    "City": "QingHuangDao"
  },
  {
    "Name": "山海关顺隆大众浴池",
    "Website": "https://you.ctrip.com/sight/qinhuangdao132/146104989.html?scene=online",
    "Address": "秦皇岛市山海关区燕塞湖东路",
    "Phone": null,
    "Latitude": null,
    "Longitude": null,
    "City": "QingHuangDao"
  },
  {
    "Name": "独牙台球青年创业基地",
    "Website": "https://you.ctrip.com/sight/qinhuangdao132/146104964.html?scene=online",
    "Address": "河北省秦皇岛市山海关区石河路左岸香颂西南侧约40米",
    "Phone": null,
    "Latitude": null,
    "Longitude": null,
    "City": "QingHuangDao"
  },
  {
    "Name": "瀚海楼洗浴",
    "Website": "https://you.ctrip.com/sight/qinhuangdao132/146085115.html?scene=online",
    "Address": "河北省秦皇岛市山海关区关城东路15号",
    "Phone": null,
    "Latitude": null,
    "Longitude": null,
    "City": "QingHuangDao"
  },
  {
    "Name": "飞鱼冰雪轮滑",
    "Website": "https://you.ctrip.com/sight/qinhuangdao132/146071110.html?scene=online",
    "Address": "河北省秦皇岛市山海关区兴华商城2楼",
    "Phone": null,
    "Latitude": null,
    "Longitude": null,
    "City": "QingHuangDao"
  },
  {
    "Name": "轩威散打搏击馆",
    "Website": "https://you.ctrip.com/sight/qinhuangdao132/146065325.html?scene=online",
    "Address": "秦皇岛市山海关区南关大街兴华小区(货场前街)南侧约50米",
    "Phone": null,
    "Latitude": null,
    "Longitude": null,
    "City": "QingHuangDao"
  },
  {
    "Name": "美扬时代24小时自助台球",
    "Website": "https://you.ctrip.com/sight/qinhuangdao132/146055463.html?scene=online",
    "Address": "秦皇岛市山海关区石河路左岸香颂西侧约40米",
    "Phone": null,
    "Latitude": null,
    "Longitude": null,
    "City": "QingHuangDao"
  },
  {
    "Name": "龙城帝国广场",
    "Website": "https://you.ctrip.com/sight/qinhuangdao132/146051254.html?scene=online",
    "Address": "河北省秦皇岛市山海关区西大街55号",
    "Phone": null,
    "Latitude": null,
    "Longitude": null,
    "City": "QingHuangDao"
  },
  {
    "Name": "大伙沐浴",
    "Website": "https://you.ctrip.com/sight/qinhuangdao132/146045552.html?scene=online",
    "Address": "河北省秦皇岛市山海关区南海西路145号",
    "Phone": null,
    "Latitude": null,
    "Longitude": null,
    "City": "QingHuangDao"
  },
  {
    "Name": "辰沅浴池",
    "Website": "https://you.ctrip.com/sight/qinhuangdao132/146025826.html?scene=online",
    "Address": "河北省秦皇岛市山海关区石河镇兴富庄村53号",
    "Phone": null,
    "Latitude": null,
    "Longitude": null,
    "City": "QingHuangDao"
  },
  {
    "Name": "鸿湖大众洗浴",
    "Website": "https://you.ctrip.com/sight/qinhuangdao132/146025741.html?scene=online",
    "Address": "河北省秦皇岛市山海关区贵州路渤海家园第六小区西南侧（赵牛庄市场东侧）",
    "Phone": null,
    "Latitude": null,
    "Longitude": null,
    "City": "QingHuangDao"
  },
  {
    "Name": "清水源沐浴",
    "Website": "https://you.ctrip.com/sight/qinhuangdao132/146021618.html?scene=online",
    "Address": "河北省秦皇岛市山海关区龙廷小区1栋3",
    "Phone": null,
    "Latitude": null,
    "Longitude": null,
    "City": "QingHuangDao"
  },
  {
    "Name": "汇人源洗浴",
    "Website": "https://you.ctrip.com/sight/qinhuangdao132/146015853.html?scene=online",
    "Address": "河北省秦皇岛市山海关区山海新城商业楼H号",
    "Phone": null,
    "Latitude": null,
    "Longitude": null,
    "City": "QingHuangDao"
  },
  {
    "Name": "河马洗护(南苑小区店)",
    "Website": "https://you.ctrip.com/sight/qinhuangdao132/145996064.html?scene=online",
    "Address": "秦皇岛市山海关区南苑东路南苑小区",
    "Phone": null,
    "Latitude": null,
    "Longitude": null,
    "City": "QingHuangDao"
  },
  {
    "Name": "跆风跆拳道自由搏击",
    "Website": "https://you.ctrip.com/sight/qinhuangdao132/145986173.html?scene=online",
    "Address": "河北省秦皇岛市山海关区老龙头路博维龙庭小区1号楼3楼",
    "Phone": null,
    "Latitude": null,
    "Longitude": null,
    "City": "QingHuangDao"
  },
  {
    "Name": "东港一小乡村少年宫",
    "Website": "https://you.ctrip.com/sight/qinhuangdao132/144223423.html?scene=online",
    "Address": "河北省秦皇岛市山海关区临港物流园区东港镇第一小学",
    "Phone": null,
    "Latitude": null,
    "Longitude": null,
    "City": "QingHuangDao"
  },
  {
    "Name": "梅花鹿",
    "Website": "https://you.ctrip.com/sight/qinhuangdao132/145247213.html?scene=online",
    "Address": "秦皇岛市山海关区燕塞湖路松鼠园鹿园内",
    "Phone": null,
    "Latitude": null,
    "Longitude": null,
    "City": "QingHuangDao"
  },
  {
    "Name": "河马洗护(山海关店)",
    "Website": "https://you.ctrip.com/sight/qinhuangdao132/146155909.html?scene=online",
    "Address": "秦皇岛市海港区广大龙院道3号、21号",
    "Phone": null,
    "Latitude": null,
    "Longitude": null,
    "City": "QingHuangDao"
  }
]